SITE_ID,Agency Codes,MINISTRY,AGENCY,STYPE,NAME,VENDOR_ID,HOTSPOT_ID,ZipCode,county,district,ADDR,LATITUDE,LONGITUDE,E-MINISTRY,E_AGENCY,E_STYPE,E_NAME,E_CITY,E_AREA,E_ADDR
TPEE000001,379530800H,臺北市政府,臺北市公共運輸處,公車站,天母棒球場-N-忠誠路二段,,TAIFO,111,臺北市,士林區,111臺北市士林區忠誠路二段77號前方候車亭,121.5318822,25.1133101,Taipei City Government,"Public Transportation Office, Taipei City Government",Bus Station,"Tianmu Baseball Stadium N-Sec. 2, Zhongcheng rd.",Taipei City,Shilin District,"The bus station front of No. 77, Sec. 2, Zhongcheng Rd., Shilin District, Taipei City 111, Taiwan (R.O.C.)"
TPEE000002,379530800H,臺北市政府,臺北市公共運輸處,公車站,陽明高中-W2-中正路,,TAIFO,111,臺北市,士林區,111臺北市士林區中正路497號對面候車亭,121.5180071,25.0922602,Taipei City Government,"Public Transportation Office, Taipei City Government",Bus Station,Yangming High School W2-Zhongzheng rd.,Taipei City,Shilin District,"The bus station on the opposite side of No. 497, Zhongzheng Rd., Shilin District, Taipei City 111, Taiwan,  (R.O.C.)"
TPEE000003,379530800H,臺北市政府,臺北市公共運輸處,公車站,衛理女中-E-至善路二段,,TAIFO,111,臺北市,士林區,111臺北市士林區至善路二段321號對面候車亭,121.5526898,25.1016655,Taipei City Government,"Public Transportation Office, Taipei City Government",Bus Station,"Wesley Girls High School E-Sec. 2, Zhishan rd.",Taipei City,Shilin District,"The bus station on the opposite side of No. 321, Sec. 2, Zhishan Rd., Shilin District, Taipei City 111, Taiwan, R.O.C."
TPEE000004,379530800H,臺北市政府,臺北市公共運輸處,公車站,泰北中學-E1-福林路,,TAIFO,111,臺北市,士林區,111臺北市士林區福林路240號(泰北高中旁)候車亭,121.5335200,25.0971700,Taipei City Government,"Public Transportation Office, Taipei City Government",Bus Station,Private Taibei Senior High School-E1-Fulin Rd.,Taipei City,Shilin District,"The bus station(Next to Taibei High School) No. 240, Fulin Rd., Shilin Dist., Taipei City 111 , Taiwan (R.O.C.)"
TPEE000005,379530800H,臺北市政府,臺北市公共運輸處,公車站,士林高商-S-士商路,,TAIFO,111,臺北市,士林區,111臺北市士林區士商路153號對面附近候車亭,121.5171050,25.0941540,Taipei City Government,"Public Transportation Office, Taipei City Government",Bus Station,Shilin High School of Commerce S-Shishang rd.,Taipei City,Shilin District,"The bus station on the opposite side of No. 153, Shishang Rd., Shilin Dist., Taipei City 111, Taiwan (R.O.C.)"
TPEE000006,379530800H,臺北市政府,臺北市公共運輸處,公車站,雨農國小-W-雨聲街,,TAIFO,111,臺北市,士林區,111臺北市士林區忠義街1號雨農國小後門候車亭(雨聲街本線上),121.5302360,25.1047015,Taipei City Government,"Public Transportation Office, Taipei City Government",Bus Station,Yu Nong Elementary School-W-Yusheng St.,Taipei City,Shilin District,"The bus station at the back door of Yu Nong Elementary School(Yusheng St Main Line) No. 1, Zhongyi St., Shilin Dist., Taipei City?111?, Taiwan (R.O.C.)"
TPEE000007,379530800H,臺北市政府,臺北市公共運輸處,公車站,社子國小-N-延平北路六段,,TAIFO,111,臺北市,士林區,111臺北市士林區延平北路六段308號旁候車亭,121.5026565,25.0898162,Taipei City Government,"Public Transportation Office, Taipei City Government",Bus Station,Shezi Elementary School-N-Section 6 of Yanping North Road,Taipei City,Shilin District,"The bus station near No. 308, Sec. 6, Yanping N. Rd., Shilin Dist., Taipei City 111 , Taiwan (R.O.C.)"
TPEE000011,379530800H,臺北市政府,臺北市公共運輸處,公車站,市立臺北特教學校-N-忠誠路二段,,TAIFO,111,臺北市,士林區,111臺北市士林區忠誠路二段207巷1號旁候車亭(忠誠路2段本線),121.5346782,25.1172725,Taipei City Government,"Public Transportation Office, Taipei City Government",Bus Station,"Taipei School of Special Education N-Sec. 2, Zhongcheng rd.",Taipei City,Shilin District,"The bus station next to No. 1, Ln. 207, Sec. 2, Zhongcheng Rd., Shilin Dist., Taipei City?111?, Taiwan (R.O.C.)(Zhongcheng Rd Section 2 Main Line)"
TPEE000012,379530800H,臺北市政府,臺北市公共運輸處,公車站,市立臺北特教學校-S-忠誠路二段,,TAIFO,111,臺北市,士林區,111臺北市士林區忠誠路二段200號前方候車亭,121.5342892,25.1171160,Taipei City Government,"Public Transportation Office, Taipei City Government",Bus Station,"Taipei School of Special Education S-Sec. 2, Zhongcheng rd.",Taipei City,Shilin District,"The bus station front of No. 200, Sec. 2, Zhongcheng Rd., Shilin District, Taipei City 111, Taiwan (R.O.C.)"
TPEE000013,379530800H,臺北市政府,臺北市公共運輸處,公車站,天母棒球場-S-忠誠路二段,,TAIFO,111,臺北市,士林區,111臺北市士林區忠誠路二段134號前候車亭,121.5322068,25.1141673,Taipei City Government,"Public Transportation Office, Taipei City Government",Bus Station,"Tianmu Baseball Stadium S-Sec. 2, Zhongcheng rd.",Taipei City,Shilin District,"The bus station front of No. 134, Sec. 2, Zhongcheng Rd., Shilin District, Taipei City 111, Taiwan, R.O.C."
TPEE000014,379530800H,臺北市政府,臺北市公共運輸處,公車站,蘭雅國中-S1-忠誠路二段,,TAIFO,111,臺北市,士林區,111臺北市士林區忠誠路二段27號對面候車亭,121.5303708,25.1095358,Taipei City Government,"Public Transportation Office, Taipei City Government",Bus Station,"Lanya Junior High School S1-Sec. 2, Zhongcheng rd.",Taipei City,Shilin District,"The bus station on the opposite side of No. 27, Sec. 2, Zhongcheng Rd., Shilin District, Taipei City 111, Taiwan (R.O.C.)"
TPEE000015,379530800H,臺北市政府,臺北市公共運輸處,公車站,雨農國小-S1-忠誠路一段,,TAIFO,111,臺北市,士林區,111臺北市士林區忠誠路一段105號前候車亭,121.5285365,25.1050735,Taipei City Government,"Public Transportation Office, Taipei City Government",Bus Station,"Yunong Elementary School S1-Sec. 1, Zhongcheng rd.",Taipei City,Shilin District,"The bus station front of No. 105, Sec. 1, Zhongcheng Rd., Shilin District, Taipei City 111,Taiwan (R.O.C.)"
TPEE000016,379530800H,臺北市政府,臺北市公共運輸處,公車站,聯合醫院陽明院區-E-忠義街,,TAIFO,111,臺北市,士林區,111臺北市士林區忠義街40號對面候車亭,121.5305183,25.1053931,Taipei City Government,"Public Transportation Office, Taipei City Government",Bus Station,Tcuh Yangming Branch-Zhongyi st.,Taipei City,Shilin District,"The bus station on the opposite side of No. 40, Zhongyi St., Shilin District, Taipei City 111, Taiwan (R.O.C.)"
TPEE000017,379530800H,臺北市政府,臺北市公共運輸處,公車站,蘭雅國中-N1-忠誠路二段,,TAIFO,111,臺北市,士林區,111臺北市士林區忠誠路二段27號旁候車亭,121.5306476,25.109507,Taipei City Government,"Public Transportation Office, Taipei City Government",Bus Station,"Lanya Junior High School N1-Sec. 2, Zhongcheng rd.",Taipei City,Shilin District,"The bus station next to No. 27, Sec. 2, Zhongcheng Rd., Shilin Dist., Taipei City?111?, Taiwan (R.O.C.)"
TPEE000018,379530800H,臺北市政府,臺北市公共運輸處,公車站,福林國小-W1-中正路,,TAIFO,111,臺北市,士林區,111臺北市士林區中正路115號對面候車亭,121.5296462,25.0961985,Taipei City Government,"Public Transportation Office, Taipei City Government",Bus Station,Fulin Elementary School W1-Zhongzheng rd.,Taipei City,Shilin District,"The bus station on the opposite side of No. 115 Zhongzheng Rd., Shilin District, Taipei City 111, Taiwan (R.O.C.)"
TPEE000019,379530800H,臺北市政府,臺北市公共運輸處,公車站,泰北中學-W1-福林路,,TAIFO,111,臺北市,士林區,111臺北市士林區福林路209號旁候車亭,121.5339960,25.0977680,Taipei City Government,"Public Transportation Office, Taipei City Government",Bus Station,Taibei High School W1-Fulin rd.,Taipei City,Shilin District,"The bus station near No. 209, Fulin Rd., Shilin District, Taipei City 111, Taiwan, R.O.C."
TPEE000020,379530800H,臺北市政府,臺北市公共運輸處,公車站,福林國小-E1-中正路,,TAIFO,111,臺北市,士林區,111臺北市士林區中正路116號對面候車亭,121.5290116,25.0959099,Taipei City Government,"Public Transportation Office, Taipei City Government",Bus Station,Fulin Elementary School E1-Zhongzheng rd.,Taipei City,Shilin District,"The bus station on the opposite side of No. 116, Zhongzheng Rd., Shilin District, Taipei City 111, Taiwan (R.O.C.)"
TPEE000021,379530800H,臺北市政府,臺北市公共運輸處,公車站,陽明高中-E1-中正路,,TAIFO,111,臺北市,士林區,111臺北市士林區中正路519號附近候車亭,121.5169976,25.0911829,Taipei City Government,"Public Transportation Office, Taipei City Government",Bus Station,Yangming High School E1-Zhongzheng rd.,Taipei City,Shilin District,"The bus station near No. 519, Zhongzheng Rd., Shilin Dist., Taipei City 111 , Taiwan (R.O.C.)"
TPEE000022,379530800H,臺北市政府,臺北市公共運輸處,公車站,士林監理站-N-承德路五段,,TAIFO,111,臺北市,士林區,111臺北市士林區重慶北路四段58號前方候車亭,121.5146053,25.0952285,Taipei City Government,"Public Transportation Office, Taipei City Government",Bus Station,Shilin Motor Vehicle Supervision Station - N - Section 5 of Chengde Road,Taipei City,Shilin District,"The bus station front No. 58, Sec. 4, Chongqing N. Rd., Shilin Dist., Taipei City 111, Taiwan (R.O.C.)"
TPEE000024,379530800H,臺北市政府,臺北市公共運輸處,公車站,小北街-N-文林路,,TAIFO,111,臺北市,士林區,111臺北市士林區文林路235號對面候車亭,121.5269690,25.0907090,Taipei City Government,"Public Transportation Office, Taipei City Government",Bus Station,Xiaobei St-N-Wenlin Rd.,Taipei City,Shilin District,"The bus station on the opposite side of  No. 235, Wenlin Rd., Shilin Dist., Taipei City 111 , Taiwan (R.O.C.)"
TPEE000025,379530800H,臺北市政府,臺北市公共運輸處,公車站,天母棒球場-士東-E-士東路,,TAIFO,111,臺北市,士林區,111臺北市士林區士東路180號候車亭,121.5322983,25.1125028,Taipei City Government,"Public Transportation Office, Taipei City Government",Bus Station,Tianmu Baseball Stadium-ShidongE-Shidong rd.,Taipei City,Shilin District,"The bus station near No. 180, Shidong Rd., Shilin District, Taipei City 111, Taiwan (R.O.C.)"
TPEE000026,379530800H,臺北市政府,臺北市公共運輸處,公車站,福安國中-N-延平北路七段,,TAIFO,111,臺北市,士林區,111臺北市士林區延平北路七段250號候車亭,121.4874770,25.1032420,Taipei City Government,"Public Transportation Office, Taipei City Government",Bus Station,"Fuan Elementary School N-Sec. 7, Yanping N. rd.",Taipei City,Shilin District,"The bus station No. 250, Sec. 7, Yanping N. Rd., Shilin District, Taipei City 111, Taiwan,  (R.O.C.)"
TPEE000027,379530800H,臺北市政府,臺北市公共運輸處,公車站,華興中學-N-仰德大道一段,,TAIFO,111,臺北市,士林區,111臺北市士林區仰德大道一段101號華興中學校門旁候車亭,121.5384175,25.1041311,Taipei City Government,"Public Transportation Office, Taipei City Government",Bus Station,"Huaxing High School N-Sec. 1, Yangde blvd.",Taipei City,Shilin District,"The bus station near Huaxing High School gate, No. 101, Sec. 1, Yangde Blvd., Shilin District, Taipei City 111, Taiwan (R.O.C.)"
TPEE000028,379530800H,臺北市政府,臺北市公共運輸處,公車站,華興中學-S-仰德大道一段,,TAIFO,111,臺北市,士林區,111臺北市士林區仰德大道一段101號華興中學校門旁對面候車亭,121.5381540,25.1041310,Taipei City Government,"Public Transportation Office, Taipei City Government",Bus Station,"Huaxing High School S-Sec. 1, Yangde blvd.",Taipei City,Shilin District,"The bus station on the opposite the gate of Huaxing Middle School,No. 101, Sec. 1, Yangde Blvd., Shilin Dist., Taipei City 111 , Taiwan (R.O.C.)"
TPEE000029,379530800H,臺北市政府,臺北市公共運輸處,公車站,富安國小-E-延平北路八段,,TAIFO,111,臺北市,士林區,111臺北市士林區延平北路八段138號對面候車亭,121.4827489,25.1058883,Taipei City Government,"Public Transportation Office, Taipei City Government",Bus Station,"Fuan Elementary School-E-Sec. 8, Yanping N. Rd.",Taipei City,Shilin District,"The bus station on the opposite side of No. 138, Sec. 8, Yanping N. Rd., Shilin Dist., Taipei City 111 , Taiwan (R.O.C.)"
TPEE000030,379530800H,臺北市政府,臺北市公共運輸處,公車站,天母-S1-中山北路七段,,TAIFO,111,臺北市,士林區,111臺北市士林區中山北路七段165之2號候車亭,121.5324550,25.1241980,Taipei City Government,"Public Transportation Office, Taipei City Government",Bus Station,"Tianmu-S1-Sec. 7, Zhongshan N. Rd.",Taipei City,Shilin District,"The bus station No. 165-2, Sec. 7, Zhongshan N. Rd., Shilin Dist., Taipei City 111 , Taiwan (R.O.C.)"
TPEE000031,379530800H,臺北市政府,臺北市公共運輸處,公車站,天母棒球場-士東-士東路,,TAIFO,111,臺北市,士林區,111臺北市士林區士東路180號對面候車亭,121.5323940,25.1126910,Taipei City Government,"Public Transportation Office, Taipei City Government",Bus Station,Tianmu Baseball Stadium-Shidong-Shidong rd.,Taipei City,Shilin District,"The bus station on the opposite side of No. 180, Shidong Rd., Shilin District, Taipei City 111, Taiwan (R.O.C.)"
TPEE000032,379530800H,臺北市政府,臺北市公共運輸處,公車站,兒童新樂園-士商路,,TAIFO,111,臺北市,士林區,111臺北市士林區士商路150號旁(兒童新樂園對面)候車亭,121.5152140,25.0962101,Taipei City Government,"Public Transportation Office, Taipei City Government",Bus Station,Taipei Children Amusement Park-Shishang rd.,Taipei City,Shilin District,"The bus station near to Shilin High School of Commerce, No. 150, Shishang Rd., Shilin District, Taipei City 111, Taiwan (R.O.C.)"
TPEE000033,379530800H,臺北市政府,臺北市公共運輸處,公車站,東吳大學-E1-至善路二段,,TAIFO,111,臺北市,士林區,111臺北市士林區至善路一段與臨溪路口西南側候車亭,121.5418953,25.0970977,Taipei City Government,"Public Transportation Office, Taipei City Government",Bus Station,"Soochow University(Chien Mu House)-E1-Sec. 2, Zhishan Rd.",Taipei City,Shilin District,"The bus station on the southwest side of Sec. 1, Zhishan Rd and Linxi Rd Intersection, Shilin District, Taipei City 111 , Taiwan (R.O.C.)"
TPEE000034,379530800H,臺北市政府,臺北市公共運輸處,公車站,雨農國小-E-忠誠路一段,,TAIFO,111,臺北市,士林區,111臺北市士林區忠誠路一段105號雨農國小後門對面候車亭,121.5306871,25.1045422,Taipei City Government,"Public Transportation Office, Taipei City Government",Bus Station,"Yunong Elementary School E-Sec. 1, Zhongcheng Rd.",Taipei City,Shilin District,"The bus station on the opposite side of Yunong Elementary School back gate, No. 105, Sec. 1, Zhongcheng Rd., Shilin Dist., Taipei City 111, Taiwan, R.O.C."
TPEE000035,379530800H,臺北市政府,臺北市公共運輸處,公車站,捷運北門站-S1-塔城街,,TAIFO,103,臺北市,大同區,103臺北市大同區塔城街10號捷運北門1號出口旁候車亭,121.5100754,25.0490126,Taipei City Government,"Public Transportation Office, Taipei City Government",Bus Station,Mrt Beimen Station S1-Tacheng st.,Taipei City,Datong District,"The bus station near the MRT Beimen station exit 1 ,No. 10, Tacheng St., Datong Dist., Taipei City 103, Taiwan (R.O.C.)"
TPEE000036,379530800H,臺北市政府,臺北市公共運輸處,公車站,捷運北門站-N1-塔城街,,TAIFO,103,臺北市,大同區,103臺北市大同區塔城街10號對面捷運北門2號出口旁候車亭,121.5104866,25.0494408,Taipei City Government,"Public Transportation Office, Taipei City Government",Bus Station,Mrt Beimen Station N1-Tacheng st.,Taipei City,Datong District,"The bus station on the opposite side of MRT Beimen station exit 2 ,No. 10, Tacheng St., Datong Dist., Taipei City 103, Taiwan (R.O.C.)"
TPEE000037,379530800H,臺北市政府,臺北市公共運輸處,公車站,台北橋-N-延平北路二段,,TAIFO,103,臺北市,大同區,103臺北市大同區延平北路二段239號前方候車亭,121.5113750,25.0616010,Taipei City Government,"Public Transportation Office, Taipei City Government",Bus Station,"Taipei Bridge-N-Sec. 2, Yanping N. Rd.",Taipei City,Datong District,"The bus station front of No. 239, Sec. 2, Yanping N. Rd., Datong Dist., Taipei City 103 , Taiwan (R.O.C.)"
TPEE000039,379530800H,臺北市政府,臺北市公共運輸處,公車站,臺北橋-S-延平北路二段,,TAIFO,103,臺北市,大同區,103臺北市大同區延平北路二段266號旁候車亭,121.511215,25.061586,Taipei City Government,"Public Transportation Office, Taipei City Government",Bus Station,"Taipei Brigde S-Sec. 2, Yanping N. rd.",Taipei City,Datong District,"The bus station next to No. 266, Sec. 2, Yanping N. Rd., Datong Dist., Taipei City?103?, Taiwan (R.O.C.)"
TPEE000040,379530800H,臺北市政府,臺北市公共運輸處,公車站,成淵高中-S-承德路二段,,TAIFO,103,臺北市,大同區,103臺北市大同區承德路二段170號候車亭,121.5181399,25.0610976,Taipei City Government,"Public Transportation Office, Taipei City Government",Bus Station,"Chengyuan High School S-Sec. 2, Chengde rd.",Taipei City,Datong District,"The bus station front of No. 168, Sec. 2, Chengde Rd., Datong District, Taipei City 103, Taiwan (R.O.C.)"
TPEE000041,379530800H,臺北市政府,臺北市公共運輸處,公車站,青峰活動中心-N-辛亥路三段,,TAIFO,106,臺北市,大安區,106臺北市大安區辛亥路三段223號候車亭,121.5507474,25.0160322,Taipei City Government,"Public Transportation Office, Taipei City Government",Bus Station,"Qinggong Activity Center N-Sec. 3, Xinhai rd.",Taipei City,Da’an District,"The bus station near No. 223, Sec. 3, Xinhai Rd., Da’an Dist., Taipei City 106 , Taiwan (R.O.C.)"
TPEE000042,379530800H,臺北市政府,臺北市公共運輸處,公車站,龍安國小-N-新生南路三段,,TAIFO,106,臺北市,大安區,106臺北市大安區新生南路三段11號旁候車亭,121.5349095,25.0251906,Taipei City Government,"Public Transportation Office, Taipei City Government",Bus Station,"Longan Elementary School?-Civil Service?Development Inst. N-Sec. 3, Xinsheng S. rd.",Taipei City,Da’an District,"The bus station near No. 13, Sec. 3, Xinsheng S. Rd., Da’an District, Taipei City 106, Taiwan (R.O.C.)"
TPEE000043,379530800H,臺北市政府,臺北市公共運輸處,公車站,捷運公館站-N-羅斯福路四段,,TAIFO,106,臺北市,大安區,106臺北市大安區羅斯福路四段50號對面候車亭,121.5340732,25.0152849,Taipei City Government,"Public Transportation Office, Taipei City Government",Bus Station,"Mrt Gongguan Station N-Sec. 4, Roosevelt rd.",Taipei City,Da’an District,"The bus station on the opposite side of No. 50, Sec. 4, Roosevelt Rd., Da’an Dist., Taipei City 106 , Taiwan (R.O.C.)"
TPEE000044,379530800H,臺北市政府,臺北市公共運輸處,公車站,龍安國小-S-新生南路三段,,TAIFO,106,臺北市,大安區,106臺北市大安區新生南路三段14之1號候車亭,121.5345611,25.0247053,Taipei City Government,"Public Transportation Office, Taipei City Government",Bus Station,"Longan Elementary School?-Civil Service?Development Inst. S-Sec. 3, Xinsheng S. rd.",Taipei City,Da’an District,"The bus station near No. 14-1, Sec. 3, Xinsheng S. Rd., Da’an Dist., Taipei City 106 , Taiwan (R.O.C.)"
TPEE000045,379530800H,臺北市政府,臺北市公共運輸處,公車站,公企中心-S-金山南路二段,,TAIFO,106,臺北市,大安區,106臺北市大安區金山南路二段86號旁候車亭,121.5265446,25.0305351,Taipei City Government,"Public Transportation Office, Taipei City Government",Bus Station,"Center for Public and Business Administration Education-S-Sec. 2, Jinshan S. Rd.",Taipei City,Da’an District,"The bus station next to No. 86, Sec. 2, Jinshan S. Rd., Da’an Dist., Taipei City 106 , Taiwan (R.O.C.)"
TPEE000046,379530800H,臺北市政府,臺北市公共運輸處,公車站,台大綜合體育館-S-新生南路三段,,TAIFO,106,臺北市,大安區,106臺北市大安區新生南路三段40號旁候車亭,121.5341597,25.0215566,Taipei City Government,"Public Transportation Office, Taipei City Government",Bus Station,"Ntu Sports Center S-Sec. 3, Xinsheng S. rd.",Taipei City,Da’an District,"The bus station next to No. 40, Sec. 3, Xinsheng S. Rd., Da’an Dist., Taipei City?106, Taiwan (R.O.C.)"
TPEE000047,379530800H,臺北市政府,臺北市公共運輸處,公車站,臺大-S1-新生南路三段,,TAIFO,106,臺北市,大安區,106臺北市大安區新生南路三段88號旁候車亭,121.5334532,25.0182362,Taipei City Government,"Public Transportation Office, Taipei City Government",Bus Station,"NTU- S-Sec. 3, Xinsheng S. rd.",Taipei City,Da’an District,"The bus station next to No. 88, Sec. 3, Xinsheng S. Rd., Da’an Dist., Taipei City?106?, Taiwan (R.O.C.)"
TPEE000048,379530800H,臺北市政府,臺北市公共運輸處,公車站,和平高中-基隆路三段,,TAIFO,106,臺北市,大安區,106臺北市大安區臥龍街100號旁(基隆路三段本線上)候車亭,121.5476431,25.0197188,Taipei City Government,"Public Transportation Office, Taipei City Government",Bus Station,"Heping High School-Sec. 3, Keelung Rd.",Taipei City,Da’an District,"The bus station next to  (Sec. 3, Keelung Rd Main Line) No. 100, Wolong St., Da’an Dist., Taipei City 106 , Taiwan "
TPEE000049,379530800H,臺北市政府,臺北市公共運輸處,公車站,正守公園-E-長安東路一段,,TAIFO,104,臺北市,中山區,104臺北市中山區長安東路一段54號往東約40m候車亭,121.5286867,25.0481782,Taipei City Government,"Public Transportation Office, Taipei City Government",Bus Station,"Zhengshou Park-E-Sec. 1, Chang'an E. Rd",Taipei City,Zhongshan District,"The bus station about 40m to the east of No. 54, Sec. 1, Chang'an E. Rd., Zhongshan Dist., Taipei City?104?, Taiwan (R.O.C.)"
TPEE000050,379530800H,臺北市政府,臺北市公共運輸處,公車站,臺北大學-E-民生東路三段,,TAIFO,104,臺北市,中山區,104臺北市中山區民生東路三段88巷2號旁(民生東路三段本線)候車亭,121.5427997,25.0576447,Taipei City Government,"Public Transportation Office, Taipei City Government",Bus Station,"National Taipei U.-Taipei Campus E-Sec. 3, Minsheng E. rd.",Taipei City,Zhongshan District,"The bus station on the opposite side of No. 67, Sec. 3, Minsheng E. Rd., Zhongshan District, Taipei City 104, Taiwan (R.O.C.)"
TPEE000051,379530800H,臺北市政府,臺北市公共運輸處,公車站,美麗華-W1-內湖路一段,,TAIFO,114,臺北市,內湖區,114臺北市內湖區北安路與內湖路一段1巷口西北側候車亭,121.5581130,25.0848350,Taipei City Government,"Public Transportation Office, Taipei City Government",Bus Station,"Miramar W1-Ln. 1, Sec. 1, Neihu rd.",Taipei City,Neihu District,"The bus station on the northwest side of No. 1, Ln. 1, Sec. 1, Neihu Rd., Zhongshan District, Taipei City 104, Taiwan,  (R.O.C.)"
TPEE000052,379530800H,臺北市政府,臺北市公共運輸處,公車站,長春國小-S-建國北路二段,,TAIFO,104,臺北市,中山區,104臺北市中山區建國北路二段68號旁候車亭,121.5365335,25.054226,Taipei City Government,"Public Transportation Office, Taipei City Government",Bus Station,"Changchun Elementary School S-Sec. 2, Jianguo N. rd.",Taipei City,Zhongshan District,"The bus station near No. 68, Sec. 2, Jianguo N. Rd., Zhongshan District, Taipei City 104, Taiwan (R.O.C.)"
TPEE000053,379530800H,臺北市政府,臺北市公共運輸處,公車站,臺北大學(臺北校區)-W-民生東路三段,,TAIFO,104,臺北市,中山區,104臺北市中山區民生東路三段67號旁候車亭(台北大學資訊大樓旁),121.5417303,25.0579635,Taipei City Government,"Public Transportation Office, Taipei City Government",Bus Station,"National Taipei U.-Taipei Campus W-Sec. 3, Minsheng E. Rd.",Taipei City,Zhongshan District,"The bus station next to No. 67, Sec. 3, Minsheng E. Rd., Zhongshan Dist., Taipei City?104?, Taiwan (R.O.C.)(Next toUniversitas Nationalis Taipei Information Building)"
TPEE000054,379530800H,臺北市政府,臺北市公共運輸處,公車站,濱江國中-W-樂群二路,,TAIFO,104,臺北市,中山區,104臺北市中山區樂群二路303號候車亭,121.5614800,25.0801000,Taipei City Government,"Public Transportation Office, Taipei City Government",Bus Station,Binjian Jr. High School W-Lequn 2nd rd.,Taipei City,Zhongshan District,"The bus station No. 303, Lequn 2nd Rd., Zhongshan District, Taipei City 104, Taiwan,  (R.O.C.)"
TPEE000055,379530800H,臺北市政府,臺北市公共運輸處,公車站,中山國小-新生-N-新生北路三段,,TAIFO,104,臺北市,中山區,104臺北市中山區新生南路三段19巷15號旁候車亭,121.5279437,25.0638525,Taipei City Government,"Public Transportation Office, Taipei City Government",Bus Station,"Zhongshan Elementary School N-Sec. 3, Xinsheng N. rd.",Taipei City,Zhongshan District,"The bus station near No. 15, Sec. 3, Xinsheng N. Rd., Zhongshan District, Taipei City 104, Taiwan,  (R.O.C.)"
TPEE000056,379530800H,臺北市政府,臺北市公共運輸處,公車站,大佳國小-W-濱江街,,TAIFO,104,臺北市,中山區,104臺北市中山區濱江街152之7號對面候車亭,121.5370512,25.0726779,Taipei City Government,"Public Transportation Office, Taipei City Government",Bus Station,Dajia Elementary School W-Binjiang st.,Taipei City,Zhongshan District,"The bus station on the opposite side of No. 152-6, Binjiang St., Zhongshan District, Taipei City 104, Taiwan (R.O.C.)"
TPEE000057,379530800H,臺北市政府,臺北市公共運輸處,公車站,大佳國小-E-濱江街,,TAIFO,104,臺北市,中山區,104臺北市中山區濱江街142號左側候車亭,121.5364766,25.0724326,Taipei City Government,"Public Transportation Office, Taipei City Government",Bus Station,Dajia Elementary School E-Binjiang st.,Taipei City,Zhongshan District,"The bus station on the left side ofNo. 142, Binjiang St., Zhongshan District, Taipei City 104, Taiwan,  (R.O.C.)"
TPEE000058,379530800H,臺北市政府,臺北市公共運輸處,公車站,大直高中-E-北安路,,TAIFO,104,臺北市,中山區,104臺北市中山區北安路420號旁候車亭,121.5421980,25.0794830,Taipei City Government,"Public Transportation Office, Taipei City Government",Bus Station,Dazhi High School-E-Bei'an Rd.,Taipei City,Zhongshan District,"The bus station next to No. 420, Bei'an Rd., Zhongshan Dist., Taipei City 104 , Taiwan (R.O.C.)"
TPEE000059,379530800H,臺北市政府,臺北市公共運輸處,公車站,新生公園-W1-民族東路,,TAIFO,104,臺北市,中山區,104臺北市中山區民族東路146號對面候車停,121.5290716,25.0684198,Taipei City Government,"Public Transportation Office, Taipei City Government",Bus Station,Taipei Expo Park W-Minzu E. rd.,Taipei City,Zhongshan District,"The bus station on the opposite side of No. 146, Minzu E. Rd., Zhongshan Dist., Taipei City 104 , Taiwan (R.O.C.)"
TPEE000060,379530800H,臺北市政府,臺北市公共運輸處,公車站,大直高中-W-北安路,,TAIFO,104,臺北市,中山區,104臺北市中山區北安路420號斜對面候車亭,121.5436981,25.0797539,Taipei City Government,"Public Transportation Office, Taipei City Government",Bus Station,Dazhi High School S-Bei’an rd.,Taipei City,Zhongshan District,"The bus station on the opposite side of No. 420, Bei’an Rd., Zhongshan Dist., Taipei City 104, Taiwan (R.O.C.)"
TPEE000061,379530800H,臺北市政府,臺北市公共運輸處,公車站,吉林國小-S-吉林路,,TAIFO,104,臺北市,中山區,104臺北市中山區吉林路69號對面候車亭,121.5300509,25.0542237,Taipei City Government,"Public Transportation Office, Taipei City Government",Bus Station,Jiling Elementart School S-Jilin rd.,Taipei City,Zhongshan District,"The bus station on the opposite side of No. 69, Jilin Rd., Zhongshan District, Taipei City 104, Taiwan (R.O.C.)"
TPEE000062,379530800H,臺北市政府,臺北市公共運輸處,公車站,中山國小-新生-S-新生北路三段,,TAIFO,104,臺北市,中山區,104臺北市中山區新生北路三段12號旁候車亭,121.5275230,25.0634334,Taipei City Government,"Public Transportation Office, Taipei City Government",Bus Station,"Zhongshan Elementary School S-Sec. 3, Xinsheng N. rd.",Taipei City,Zhongshan District,"The bus station near No. 14, Sec. 3, Xinsheng N. Rd., Zhongshan District, Taipei City 104, TTaiwan (R.O.C.)"
TPEE000063,379530800H,臺北市政府,臺北市公共運輸處,公車站,捷運劍南路站-W1-北安路,,TAIFO,104,臺北市,中山區,104臺北市中山區北安路807號前候車亭,121.5546565,25.0853806,Taipei City Government,"Public Transportation Office, Taipei City Government",Bus Station,Mrt?Jiannan Rd. Station W1-Bei’an rd.,Taipei City,Zhongshan District,"The bus station near No. 807, Bei’an Rd., Zhongshan District, Taipei City 104, Taiwan (R.O.C.)"
TPEE000064,379530800H,臺北市政府,臺北市公共運輸處,公車站,新興國中-S-新生北路二段,,TAIFO,104,臺北市,中山區,104臺北市中山區新生北路二段139號斜對面候車亭,121.5275078,25.0614938,Taipei City Government,"Public Transportation Office, Taipei City Government",Bus Station,"Xinxing Junior High School S-Sec. 2, Xinsheng N. rd.",Taipei City,Zhongshan District,"The bus station diagonally opposite of No. 139, Sec. 2, Xinsheng N. Rd., Zhongshan District, Taipei City 104, Taiwan,  (R.O.C.)"
TPEE000065,379530800H,臺北市政府,臺北市公共運輸處,公車站,中山里(民生)-E-民生東路一段,,TAIFO,104,臺北市,中山區,104臺北市中山區民生東路一段90號對面候車亭,121.5271009,25.0579586,Taipei City Government,"Public Transportation Office, Taipei City Government",Bus Station,"Zhongshan Li(Minsheng)- E-Sec. 1, Minsheng E. rd.",Taipei City,Zhongshan District,"The bus station on the opposite side of No. 90, Sec. 1, Minsheng E. Rd., Zhongshan Dist., Taipei City? 104?, Taiwan (R.O.C.)"
TPEE000066,379530800H,臺北市政府,臺北市公共運輸處,公車站,長春國小-W-長春路,,TAIFO,104,臺北市,中山區,104臺北市中山區長春路165號旁候車亭,121.5340441,25.0548631,Taipei City Government,"Public Transportation Office, Taipei City Government",Bus Station,Changchun Elementary School W-Changchun rd.,Taipei City,Zhongshan District,"The bus station near No. 165, Changchun Rd., Zhongshan District, Taipei City 104, Taiwan,  (R.O.C.)"
TPEE000067,379530800H,臺北市政府,臺北市公共運輸處,公車站,中山女高-S-建國北路一段,,TAIFO,104,臺北市,中山區,104臺北市中山區建國北路一段96號候車亭,121.5364388,25.0503555,Taipei City Government,"Public Transportation Office, Taipei City Government",Bus Station,"Zhongshan Girls High School S-Sec. 1, Jianguo N. rd.",Taipei City,Zhongshan District,"The bus station No. 96, Sec. 1, Jianguo N. Rd., Zhongshan District, Taipei City 104, Taiwan,  (R.O.C.)"
TPEE000069,379530800H,臺北市政府,臺北市公共運輸處,公車站,稻江護校-S-新生北路三段,,TAIFO,104,臺北市,中山區,104臺北市中山區新生北路三段52號對面候車亭,121.5275823,25.0650327,Taipei City Government,"Public Transportation Office, Taipei City Government",Bus Station,"Daojiang High School of Nursing And Home Economics S-Sec. 3, Xinsheng N. rd.",Taipei City,Zhongshan District,"The bus station on the opposite side of No. 50-2, Sec. 3, Xinsheng N. Rd., Zhongshan District, Taipei City 104, Taiwan (R.O.C.)"
TPEE000070,379530800H,臺北市政府,臺北市公共運輸處,公車站,吉林國小-新生北路-S-南京東路一段,,TAIFO,104,臺北市,中山區,104臺北市中山區新生北路二段28巷口旁約50公尺(新生北路二段本線)候車亭,121.5273050,25.0533800,Taipei City Government,"Public Transportation Office, Taipei City Government",Bus Station,"Jiling Elementart School -Sinsheng N. Rd S-Sec. 1, Nanjing E. rd.",Taipei City,Zhongshan District,"The bus station about 50 meters from the entrance of Ln. 28, Sec. 2, Xinsheng N. Rd., Zhongshan Dist., Taipei City 104 , Taiwan (R.O.C.) (On Section 2, Xinsheng North Road main Line)"
TPEE000071,379530800H,臺北市政府,臺北市公共運輸處,公車站,民族東路口-S-新生北路三段,,TAIFO,104,臺北市,中山區,104臺北市中山區新生北路三段82之6號附近候車亭,121.5276232,25.0673850,Taipei City Government,"Public Transportation Office, Taipei City Government",Bus Station,"Minzu E. Rd. Entrance S-Sec. 3, Xinsheng N. rd.",Taipei City,Zhongshan District,"The bus station near No. 82-6, Sec. 3, Xinsheng N. Rd., Zhongshan Dist., Taipei City 104 , Taiwan (R.O.C.)"
TPEE000072,379530800H,臺北市政府,臺北市公共運輸處,公車站,中山老人住宅-S-新生北路二段,,TAIFO,104,臺北市,中山區,104臺北市中山區新生北路二段74號前方高架橋旁候車亭,121.5273652,25.0571666,Taipei City Government,"Public Transportation Office, Taipei City Government",Bus Station,"Zhongshan Elderly House S-Sec. 2, Xinsheng N. rd.",Taipei City,Zhongshan District,"The bus station next to the viaduct in front of No. 74, Sec. 2, Xinsheng N. Rd., Zhongshan Dist., Taipei City 104?, Taiwan (R.O.C.)"
TPEE000074,379530800H,臺北市政府,臺北市公共運輸處,公車站,榮星花園-建國北路三段,,TAIFO,104,臺北市,中山區,104臺北市中山區建國北路三段28號前候車亭,121.5367806,25.0640450,Taipei City Government,"Public Transportation Office, Taipei City Government",Bus Station,"Ronxing Garden-Sec. 3, Jianguo N. rd.",Taipei City,Zhongshan District,"The bus station near No. 28, Sec. 3, Jianguo N. Rd., Zhongshan District, Taipei City 104, Taiwan (R.O.C.)"
TPEE000075,379530800H,臺北市政府,臺北市公共運輸處,公車站,第二果菜市場-S-建國北路三段,,TAIFO,104,臺北市,中山區,104臺北市中山區建國北路三段78號旁候車亭,121.53574,25.06578,Taipei City Government,"Public Transportation Office, Taipei City Government",Bus Station,"Taipei 2nd Fruits and Vegetable  Market-S-Sec. 3, Jianguo N. rd.",Taipei City,Zhongshan District,"The bus station next to No. 78, Sec. 3, Jianguo N. Rd., Zhongshan Dist., Taipei City 104 , Taiwan (R.O.C.)"
TPEE000076,379530800H,臺北市政府,臺北市公共運輸處,公車站,建國錦州街口-S-建國北路二段,,TAIFO,104,臺北市,中山區,104臺北市中山區建國北路二段216號旁候車亭,121.5367223,25.0607878,Taipei City Government,"Public Transportation Office, Taipei City Government",Bus Station,"Jiangguo And Jinzhou Intersection S-Sec. 2, Jianguo N. rd.",Taipei City,Zhongshan District,"The bus station front of No. 216, Sec. 2, Jianguo N. Rd., Zhongshan District, Taipei City 104, Taiwan (R.O.C.)"
TPEE000077,379530800H,臺北市政府,臺北市公共運輸處,公車站,新生公園-W2-民族東路,,TAIFO,104,臺北市,中山區,104臺北市中山區民族東路210號對面候車停,121.5312891,25.0684177,Taipei City Government,"Public Transportation Office, Taipei City Government",Bus Station,Taipei Expo Park W-Minzu E. rd.,Taipei City,Zhongshan District,"The bus station on the opposite side of No. 210, Minzu E. Rd., Zhongshan Dist., Taipei City 104, Taiwan (R.O.C.)"
TPEE000078,379530800H,臺北市政府,臺北市公共運輸處,公車站,北安國中-W-明水路,,TAIFO,104,臺北市,中山區,104臺北市中山區明水路325號旁候車亭,121.5414047,25.0777112,Taipei City Government,"Public Transportation Office, Taipei City Government",Bus Station,Beian Jr. High School W-Mingshui rd.,Taipei City,Zhongshan District,"The bus station next to No. 325, Mingshui Rd., Zhongshan Dist., Taipei City?104?, Taiwan (R.O.C.)"
TPEE000079,379530800H,臺北市政府,臺北市公共運輸處,公車站,河濱公園大佳段-W-濱江街,,TAIFO,104,臺北市,中山區,104臺北市中山區濱江街183號旁候車亭,121.5392760,25.0726520,Taipei City Government,"Public Transportation Office, Taipei City Government",Bus Station,Riverside Park Dajia Section W-Binjiang st.,Taipei City,Zhongshan District,"The bus station No. 183, Binjiang St., Zhongshan District, Taipei City 104, Taiwan,  (R.O.C.)"
TPEE000080,379530800H,臺北市政府,臺北市公共運輸處,公車站,一女中(貴陽)-E-重慶南路一段,,TAIFO,100,臺北市,中正區,100臺北市中正區重慶南路一段165號旁候車亭(貴陽街一段本線上),121.5145402,25.0385603,Taipei City Government,"Public Transportation Office, Taipei City Government",Bus Station,"Taipei First Girls High School(Guiyang )-E-Sec. 1, Chongqing S. rd.",Taipei City,Zhongzheng District,"The bus station near  (Main Line, Sec. 1, Guiyang St.)No. 165, Sec. 1, Chongqing S. Rd., Zhongzheng District, Taipei City 100, Taiwan,  (R.O.C.) "
TPEE000081,379530800H,臺北市政府,臺北市公共運輸處,公車站,一女中(貴陽)-W-重慶南路一段,,TAIFO,100,臺北市,中正區,100臺北市中正區重慶南路一段165號對面候車亭(貴陽街一段本線上)(介壽公園側),121.5144800,25.0387260,Taipei City Government,"Public Transportation Office, Taipei City Government",Bus Station,"Taipei First Girls High School(Guiyang)- W-Sec. 1, Chongqing S. rd.",Taipei City,Zhongzheng District,"The bus station on the opposite side of(Main Line, Sec. 1, Guiyang St.)(Near Jieshou Park)No. 165, Sec. 1, Chongqing S. Rd., Zhongzheng District, Taipei City 100, Taiwan,  (R.O.C.) "
TPEE000082,379530800H,臺北市政府,臺北市公共運輸處,公車站,重慶南路三段(中正橋)-S-重慶南路三段,,TAIFO,100,臺北市,中正區,100臺北市中正區重慶南路三段94號旁候車亭,121.5165269,25.0247618,Taipei City Government,"Public Transportation Office, Taipei City Government",Bus Station,"Sec. 3, Chongqing S. Rd(Zhongzheng bridge)-S-Sec. 3, Chongqing S. Rd.",Taipei City,Zhongzheng District,"The bus station next to No. 94, Sec. 3, Chongqing S. Rd., Zhongzheng Dist., Taipei City?100?, Taiwan (R.O.C.)"
TPEE000083,379530800H,臺北市政府,臺北市公共運輸處,公車站,中華路北站-慢車道-N-中華路一段,,TAIFO,100,臺北市,中正區,100臺北市中正區中華路一段41號旁候車亭,121.5088772,25.0450374,Taipei City Government,"Public Transportation Office, Taipei City Government",Bus Station,"Zhonghua Rd. N. Stop -Slow Lane-N-Sec. 1, Zhonghua rd.",Taipei City,Zhongzheng District,"The bus station next to No. 41, Sec. 1, Zhonghua Rd., Zhongzheng Dist., Taipei City?100?, Taiwan (R.O.C.)"
TPEE000085,379530800H,臺北市政府,臺北市公共運輸處,公車站,開南商工-S-林森南路,,TAIFO,100,臺北市,中正區,100臺北市中正區林森南路33號對面候車亭,121.5223196,25.0417670,Taipei City Government,"Public Transportation Office, Taipei City Government",Bus Station,KaiNan High School of Commerce and Industry-S-Linsen South Road,Taipei City,Zhongzheng District,"The bus station on the opposite side of No. 33, Linsen S. Rd., Zhongzheng Dist., Taipei City 100, Taiwan (R.O.C.)"
TPEE000086,379530800H,臺北市政府,臺北市公共運輸處,公車站,寶慶路-E1-寶慶路,,TAIFO,100,臺北市,中正區,100臺北市中正區寶慶路57號對面候車亭,121.5097684,25.0415536,Taipei City Government,"Public Transportation Office, Taipei City Government",Bus Station,Baoqing Rd. E1-Baoqing rd.,Taipei City,Zhongzheng District,"The bus station on the opposite side of No. 49, Baoqing Rd., Zhongzheng District, Taipei City 100, Taiwan,  (R.O.C.)"
TPEE000087,379530800H,臺北市政府,臺北市公共運輸處,公車站,財政大樓-S-南昌路一段,,TAIFO,100,臺北市,中正區,100臺北市中正區南昌路一段1號斜對面候車亭,121.5154179,25.0335459,Taipei City Government,"Public Transportation Office, Taipei City Government",Bus Station,"Nanmen-S-Sec. 1, Nanchang Rd",Taipei City,Zhongzheng District,"The bus station diagonally opposite side of  No. 1, Sec. 1, Nanchang Rd., Zhongzheng Dist., Taipei City 100 , Taiwan (R.O.C.)"
TPEE000088,379530800H,臺北市政府,臺北市公共運輸處,公車站,一女中(公園)N-公園路,,TAIFO,100,臺北市,中正區,100臺北市中正區公園路21號候車亭,121.5151020,25.0367550,Taipei City Government,"Public Transportation Office, Taipei City Government",Bus Station,Taipei First Girls High School-Gongyuan N-Gongyuan rd.,Taipei City,Zhongzheng District,"The bus station near No. 21, Gongyuan Rd., Zhongzheng District, Taipei City 100, Taiwan (R.O.C.)"
TPEE000089,379530800H,臺北市政府,臺北市公共運輸處,公車站,一女中(公園)S-公園路,,TAIFO,100,臺北市,中正區,100臺北市中正區公園路1號對面候車亭,121.5151161,25.0380716,Taipei City Government,"Public Transportation Office, Taipei City Government",Bus Station,Taipei First Girls High School-Gongyuan S-Gongyuan rd.,Taipei City,Zhongzheng District,"The bus station on the opposite side of No. 21, Gongyuan Rd., Zhongzheng District, Taipei City 100, Taiwan (R.O.C.)"
TPEE000090,379530800H,臺北市政府,臺北市公共運輸處,公車站,市立教大附小-S-公園路,,TAIFO,100,臺北市,中正區,100臺北市中正區愛國西路1號(博愛校區音樂館)旁候車亭,121.5150094,25.0363644,Taipei City Government,"Public Transportation Office, Taipei City Government",Bus Station,Affiliated Experimental S-Gongyuan rd.,Taipei City,Zhongzheng District,"The bus station on the opposite side of No. 21, Gongyuan Rd., Zhongzheng District, Taipei City 100, Taiwan (R.O.C.)"
TPEE000091,379530800H,臺北市政府,臺北市公共運輸處,公車站,小南門-和平院區-愛國西路,,TAIFO,100,臺北市,中正區,100臺北市中正區延平南路143號旁候車亭(愛國西路本線上),121.5083920,25.0363480,Taipei City Government,"Public Transportation Office, Taipei City Government",Bus Station,Xiaonanmen(Heping Hospital Branch)Aiguo W. Rd.,Taipei City,Zhongzheng District,"The bus station next to (Aiguo W. Rd Main Line) No. 143, Yanping S. Rd., Zhongzheng Dist., Taipei City 100 , Taiwan (R.O.C.)"
TPEE000092,379530800H,臺北市政府,臺北市公共運輸處,公車站,小南門(和平院區)-延平南路,,TAIFO,100,臺北市,中正區,100臺北市中正區博愛路172號旁候車亭(愛國西路本線上),121.5088270,25.0368130,Taipei City Government,"Public Transportation Office, Taipei City Government",Bus Station,Xiaonan Gate (Heping Hospital)-Yanping S. rd.,Taipei City,Zhongzheng District,"The bus station near (On Aiguo W. Rd. main line)No. 172, Bo'ai Rd., Zhongzheng Dist., Taipei City 100 , Taiwan (R.O.C.) "
TPEE000093,379530800H,臺北市政府,臺北市公共運輸處,公車站,成功中學(濟南)-E-濟南路一段,,TAIFO,100,臺北市,中正區,100臺北市中正區濟南路一段71號對面候車亭,121.5229484,25.0422610,Taipei City Government,"Public Transportation Office, Taipei City Government",Bus Station,"Chenggong High School(Jinan)-E- Sec. 1, Jinan Rd",Taipei City,Zhongzheng District,"The bus station on the opposite side of No. 71, Sec. 1, Jinan Rd., Zhongzheng Dist., Taipei City 100 , Taiwan (R.O.C.)"
TPEE000094,379530800H,臺北市政府,臺北市公共運輸處,公車站,成功中學(濟南)濟南路一段,,TAIFO,100,臺北市,中正區,100臺北市中正區濟南路一段71號旁候車亭,121.5231218,25.0424005,Taipei City Government,"Public Transportation Office, Taipei City Government",Bus Station,"Chenggong High Schoool-Jinan-Sec. 1, Jinan rd.",Taipei City,Zhongzheng District,"The bus station near No. 71, Sec. 1, Jinan Rd., Zhongzheng District, Taipei City 100, Taiwan (R.O.C.)"
TPEE000095,379530800H,臺北市政府,臺北市公共運輸處,公車站,開南商工-林森南路,,TAIFO,100,臺北市,中正區,100臺北市中正區林森南路33號旁候車亭,121.5226128,25.0420691,Taipei City Government,"Public Transportation Office, Taipei City Government",Bus Station,KaiNan High School of Commerce and Industry Linsen South Road,Taipei City,Zhongzheng District,"The bus station near No. 33, Linsen S. Rd., Zhongzheng Dist., Taipei City 100 , Taiwan (R.O.C.)"
TPEE000096,379530800H,臺北市政府,臺北市公共運輸處,公車站,臺北法院-W-愛國西路,,TAIFO,100,臺北市,中正區,100臺北市中正區愛國西路26號對面候車亭,121.5114541,25.0358675,Taipei City Government,"Public Transportation Office, Taipei City Government",Bus Station,Taipei Court-W-Aiguo West Road,Taipei City,Zhongzheng District,"The bus station on the opposite side of No. 26, Aiguo W. Rd., Zhongzheng Dist., Taipei City 100 , Taiwan (R.O.C.)"
TPEE000097,379530800H,臺北市政府,臺北市公共運輸處,公車站,金山泰安街口-S-金山南路一段,,TAIFO,100,臺北市,中正區,100臺北市中正區金山南路一段64號旁候車亭,121.5289361,25.0398176,Taipei City Government,"Public Transportation Office, Taipei City Government",Bus Station,"Intersection of Taian Street and Section 1, Jinshan South Road",Taipei City,Zhongzheng District,"Bus Shelter next to No. 64, Section 1, Jinshan South Road, Zhongzheng District, Taipei City 100"
TPEE000099,379530800H,臺北市政府,臺北市公共運輸處,公車站,新湖一路口-S1-舊宗路一段,,TAIFO,114,臺北市,內湖區,114臺北市內湖區舊宗路一段135號對面候車亭,121.5788836,25.0604789,Taipei City Government,"Public Transportation Office, Taipei City Government",Bus Station,"Xinhu 1st. Rd. Entrance-S1-Sec. 1, Jiuzong rd.",Taipei City,Neihu District,"The bus station on the opposite side of No. 135, Sec. 1, Jiuzong Rd., Neihu Dist., Taipei City?114?, Taiwan (R.O.C.)"
TPEE000100,379530800H,臺北市政府,臺北市公共運輸處,公車站,麗山高中-W-環山路二段,,TAIFO,114,臺北市,內湖區,114臺北市內湖區環山路二段133號對面候車亭,121.5769101,25.0841074,Taipei City Government,"Public Transportation Office, Taipei City Government",Bus Station,Lishan High School-W-Huanshan Road Section 2,Taipei City,Neihu District,"The bus station on the opposite side of No. 133, Sec. 2, Huanshan Rd., Neihu Dist., Taipei City 114, Taiwan (R.O.C.)"
TPEE000101,379530800H,臺北市政府,臺北市公共運輸處,公車站,捷運東湖站-南湖高中-S-康寧路三段,,TAIFO,114,臺北市,內湖區,114臺北市內湖區康寧路三段220號候車亭,121.6113497,25.0673356,Taipei City Government,"Public Transportation Office, Taipei City Government",Bus Station,"Mrt Donghu Station-Nanhu?High School? S-Sec. 3, Kangning rd.",Taipei City,Neihu District,"The bus station near No. 220, Sec. 3, Kangning Rd., Neihu District, Taipei City 114, Taiwan (R.O.C.)"
TPEE000102,379530800H,臺北市政府,臺北市公共運輸處,公車站,內湖高中-E-文德路,,TAIFO,114,臺北市,內湖區,114臺北市內湖區文德路220巷口旁候車亭,121.5875823,25.0786536,Taipei City Government,"Public Transportation Office, Taipei City Government",Bus Station,Neihu High School E-Wende rd.,Taipei City,Neihu District,"The bus station near Ln. 220, Wende Rd., Neihu Dist., Taipei City 114 , Taiwan (R.O.C.)"
TPEE000103,379530800H,臺北市政府,臺北市公共運輸處,公車站,上灣仔-N1-成功路二段,,TAIFO,114,臺北市,內湖區,114臺北市內湖區成功路二段與成功路二段193巷口北側候車亭,121.5907832,25.0669934,Taipei City Government,"Public Transportation Office, Taipei City Government",Bus Station,"On Wanchai N1-Sec. 2, Chenggong rd.",Taipei City,Neihu District,"The bus station north side entrance of  Chenggong Road Section 2 and Chenggong Road Section 2 Lane 193 , Neihu Dist., Taipei City?114?, Taiwan (R.O.C.)"
TPEE000104,379530800H,臺北市政府,臺北市公共運輸處,公車站,東湖國中-S-康樂街,,TAIFO,114,臺北市,內湖區,114臺北市內湖區康樂街150號候車亭,121.6194748,25.0728112,Taipei City Government,"Public Transportation Office, Taipei City Government",Bus Station,Donghu Junior High School W-Kangle st.,Taipei City,Neihu District,"The bus station 1F., No. 150, Kangle St., Neihu Dist., Taipei City 114 , Taiwan (R.O.C.)"
TPEE000105,379530800H,臺北市政府,臺北市公共運輸處,公車站,達人女中-W-內湖路二段,,TAIFO,114,臺北市,內湖區,114臺北市內湖區內湖路二段308號斜對面候車亭,121.5871500,25.0813330,Taipei City Government,"Public Transportation Office, Taipei City Government",Bus Station,"Taren Girls High School W-Sec. 2, Neihu rd.",Taipei City,Neihu District,"The bus station on the opposite side of No. 308, Sec. 2, Neihu Rd., Neihu District, Taipei City 114, Taiwan,  (R.O.C.)"
TPEE000107,379530800H,臺北市政府,臺北市公共運輸處,公車站,恕德家商-E-內湖路一段,,TAIFO,114,臺北市,內湖區,114臺北市內湖區內湖路一段306號候車亭,121.5691807,25.0820066,Taipei City Government,"Public Transportation Office, Taipei City Government",Bus Station,"Shude High School of Commerce And Home?Economics E-Sec. 1, Neihu rd.",Taipei City,Neihu District,"The bus station near No. 306, Sec. 1, Neihu Rd., Neihu District, Taipei City 114, Taiwan (R.O.C.)"
TPEE000108,379530800H,臺北市政府,臺北市公共運輸處,公車站,瑞光路-E1-瑞光路,,TAIFO,114,臺北市,內湖區,114臺北市內湖區瑞光路196號前候車亭,121.5774754,25.0747811,Taipei City Government,"Public Transportation Office, Taipei City Government",Bus Station,Ruiguang St. E1-Ruiguang rd.,Taipei City,Neihu District,"The bus station front of No. 196, Ruiguang Rd., Neihu District, Taipei City 114, Taiwan (R.O.C.)"
TPEE000109,379530800H,臺北市政府,臺北市公共運輸處,公車站,國防醫學院-W-民權東路六段,,TAIFO,114,臺北市,內湖區,114臺北市內湖區民權東路六段173號旁候車亭,121.5960230,25.0683300,Taipei City Government,"Public Transportation Office, Taipei City Government",Bus Station,"National Defense Medical Center- W-Sec. 6, Minquan E. rd.",Taipei City,Neihu District,"The bus station next to No. 173, Sec. 6, Minquan E. Rd., Neihu Dist., Taipei City 114 , Taiwan (R.O.C.)"
TPEE000110,379530800H,臺北市政府,臺北市公共運輸處,公車站,潭美國小-W-新明路,,TAIFO,114,臺北市,內湖區,114臺北市內湖區新明路22號旁候車亭,121.5904647,25.0602031,Taipei City Government,"Public Transportation Office, Taipei City Government",Bus Station,Tanmei Elementary School-Xinming W-Xinming Rd.,Taipei City,Neihu District,"The bus station near No. 22, Xinming Rd., Neihu Dist., Taipei City 114, Taiwan (R.O.C.)"
TPEE000111,379530800H,臺北市政府,臺北市公共運輸處,公車站,捷運葫州站-康寧專校-W1-康寧路三段,,TAIFO,114,臺北市,內湖區,114臺北市內湖區康寧路三段35號候車亭,121.6075970,25.0726100,Taipei City Government,"Public Transportation Office, Taipei City Government",Bus Station,"Mrt? Huzhou? Station W1-Sec. 3, Kangning rd.",Taipei City,Neihu District,"The bus station near No. 35, Sec. 3, Kangning Rd., Neihu Dist., Taipei City 114 , Taiwan (R.O.C.)"
TPEE000112,379530800H,臺北市政府,臺北市公共運輸處,公車站,明湖國小-公共電視台-E1-康寧路三段,,TAIFO,114,臺北市,內湖區,114臺北市內湖區康寧路三段54-5號旁候車亭,121.6092980,25.0715570,Taipei City Government,"Public Transportation Office, Taipei City Government",Bus Station,"Minghu Elementary School-Pts E1-Sec. 3, Kangning rd.",Taipei City,Neihu District,"The bus station near No. 54-5, Sec. 3, Kangning Rd., Neihu District, Taipei City 114, Taiwan (R.O.C.)"
TPEE000113,379530800H,臺北市政府,臺北市公共運輸處,公車站,瑞光港墘路口-E-瑞光路,,TAIFO,114,臺北市,內湖區,114臺北市內湖區瑞光路356號對面候車亭,121.5732556,25.0771935,Taipei City Government,"Public Transportation Office, Taipei City Government",Bus Station,Ruiguang Gangqian Roads-Ruiguang rd.,Taipei City,Neihu District,"The bus station on the opposite side of No. 356, Ruiguang Rd., Neihu Dist., Taipei City 114 , Taiwan (R.O.C.)"
TPEE000114,379530800H,臺北市政府,臺北市公共運輸處,公車站,大湖國小-S-大湖山莊街,,TAIFO,114,臺北市,內湖區,114臺北市內湖區大湖山莊街217號旁候車亭,121.5995630,25.0881670,Taipei City Government,"Public Transportation Office, Taipei City Government",Bus Station,Dahu?Elementary School S-Dahushanzhuang st.,Taipei City,Neihu District,"The bus station nearNo. 217, Dahushanzhuang St., Neihu District, Taipei City 114, Taiwan (R.O.C.)"
TPEE000116,379530800H,臺北市政府,臺北市公共運輸處,公車站,方濟中學-S1-成功路三段,,TAIFO,114,臺北市,內湖區,114臺北市內湖區成功路三段61號對面候車亭,121.5899200,25.0770300,Taipei City Government,"Public Transportation Office, Taipei City Government",Bus Station,"Saint Francis High School-S1-Sec. 3, Chenggong Rd.",Taipei City,Neihu District,"The bus station on the opposite side of No. 61, Sec. 3, Chenggong Rd., Neihu Dist., Taipei City114, Taiwan (R.O.C.)"
TPEE000118,379530800H,臺北市政府,臺北市公共運輸處,公車站,國立台灣戲曲學院-S-內湖路二段,,TAIFO,114,臺北市,內湖區,114臺北市內湖區內湖路二段179巷口北方西側候車亭,121.5874391,25.0815894,Taipei City Government,"Public Transportation Office, Taipei City Government",Bus Station,"National Taiwan College of Performing Arts-S-Sec. 2, Neihu Rd.",Taipei City,Neihu District,"The bus station on the north west side entrance of Ln. 179, Sec. 2, Neihu Rd., Neihu Dist., Taipei City 114, Taiwan (R.O.C.)"
TPEE000119,379530800H,臺北市政府,臺北市公共運輸處,公車站,公館山-W-瑞光路,,TAIFO,114,臺北市,內湖區,114臺北市內湖區瑞光路106號對面候車亭,121.5811299,25.0720056,Taipei City Government,"Public Transportation Office, Taipei City Government",Bus Station,Gongguanshan W-Ruiguang rd.,Taipei City,Neihu District,"The bus station on the opposite side of No. 104, Ruiguang Rd., Neihu District, Taipei City 114, Taiwan,  (R.O.C.)"
TPEE000120,379530800H,臺北市政府,臺北市公共運輸處,公車站,內湖高中-W1-文德路,,TAIFO,114,臺北市,內湖區,114臺北市內湖區文德路230號對面候車亭,121.5882780,25.0789606,Taipei City Government,"Public Transportation Office, Taipei City Government",Bus Station,Neihu High School W1-Wende rd.,Taipei City,Neihu District,"The bus station on the opposite side of No. 230, Wende Rd., Neihu Dist., Taipei City 114 , Taiwan (R.O.C.)"
TPEE000121,379530800H,臺北市政府,臺北市公共運輸處,公車站,內湖國中-W-陽光街,,TAIFO,114,臺北市,內湖區,114臺北市內湖區陽光街、文德路220巷口西北側候車亭,121.5878210,25.0770280,Taipei City Government,"Public Transportation Office, Taipei City Government",Bus Station,Neihu Jr. High School W-Yangguang st.,Taipei City,Neihu District,"The bus station northwest side of Yangguang St. and, Ln. 220, Wende Rd. , Neihu Dist., Taipei City  114 , Taiwan (R.O.C.)"
TPEE000122,379530800H,臺北市政府,臺北市公共運輸處,公車站,國防醫學院(網球中心)-E-民權東路六段,,TAIFO,114,臺北市,內湖區,114臺北市內湖區民權東路六段208號前方候車亭,121.5968141,25.0677168,Taipei City Government,"Public Transportation Office, Taipei City Government",Bus Station,"National Defense Medical Center (Taipei Tennis Center)-E-Sec. 6, Minquan E. rd.",Taipei City,Neihu District,"The bus station front of No. 208, Sec. 6, Minquan E. Rd., Neihu Dist., Taipei City?114?, Taiwan (R.O.C.)"
TPEE000123,379530800H,臺北市政府,臺北市公共運輸處,公車站,捷運大湖公園-N1-成功路5段,,TAIFO,114,臺北市,內湖區,114臺北市內湖區成功路五段11號對面大湖公園站1號出口旁候車亭,121.6027351,25.0836160,Taipei City Government,"Public Transportation Office, Taipei City Government",Bus Station,"Mrt Dahu Park N1-Sec. 5, Chenggong rd.",Taipei City,Neihu District,"The bus station on the opposite side of  Exit 1 of Dahu Park Station,No. 11, Ln. 168, Sec. 5, Chenggong Rd., Neihu Dist., Taipei City 114 , Taiwan (R.O.C.)"
TPEE000124,379530800H,臺北市政府,臺北市公共運輸處,公車站,捷運文德站(碧湖公園)-E1-文德路,,TAIFO,114,臺北市,內湖區,114臺北市內湖區文德路212號前方候車亭,121.5844110,25.0784110,Taipei City Government,"Public Transportation Office, Taipei City Government",Bus Station,Mrt Wende Station (Bihu Park)-E1-Wende rd.,Taipei City,Neihu District,"The bus station front of No. 212, Wende Rd., Neihu District, Taipei City 114, Taiwan,  (R.O.C.)"
TPEE000126,379530800H,臺北市政府,臺北市公共運輸處,公車站,考試院-E1-試院路,,TAIFO,116,臺北市,文山區,116臺北市文山區試院路1號對面候車亭,121.5494720,24.9872255,Taipei City Government,"Public Transportation Office, Taipei City Government",Bus Station,Examination Yuan E1-Shiyuan rd.,Taipei City,Wenshan District,"The bus station on the opposite side of No. 1, Shiyuan Rd., Wenshan District, Taipei City 116, Taiwan, R.O.C."
TPEE000127,379530800H,臺北市政府,臺北市公共運輸處,公車站,景文中學-S-保儀路,,TAIFO,116,臺北市,文山區,116臺北市文山區保儀路113號候車亭,121.5675589,24.9858432,Taipei City Government,"Public Transportation Office, Taipei City Government",Bus Station,Jingwen High School -National Taiwan College of Performing Arts S-Baoyi rd.,Taipei City,Wenshan District,"The bus station near No. 113, Baoyi Rd., Wenshan District, Taipei City 116, Taiwan, R.O.C."
TPEE000128,379530800H,臺北市政府,臺北市公共運輸處,公車站,景美國中-E-景中街,,TAIFO,116,臺北市,文山區,116臺北市文山區景中街27號對面候車亭,121.5427451,24.9927755,Taipei City Government,"Public Transportation Office, Taipei City Government",Bus Station,Jingmei Junior High School E-Jingzhong st.,Taipei City,Wenshan District,"The bus station on the opposite side of No. 27, Jingzhong St., Wenshan District, Taipei City 116, Taiwan,  (R.O.C.)"
TPEE000129,379530800H,臺北市政府,臺北市公共運輸處,公車站,萬興國小-S1-秀明路二段,,TAIFO,116,臺北市,文山區,116臺北市文山區秀明路二段114號旁候車亭,121.5768082,24.9896665,Taipei City Government,"Public Transportation Office, Taipei City Government",Bus Station,"Wanxing Elementary School S1-Sec. 2, Xiuming rd.",Taipei City,Wenshan District,"The bus station near No. 114, Sec. 2, Xiuming Rd., Wenshan District, Taipei City 116, Taiwan (R.O.C.)"
TPEE000130,379530800H,臺北市政府,臺北市公共運輸處,公車站,捷運景美站-N-出口1-羅斯福路六段,,TAIFO,116,臺北市,文山區,116臺北市文山區羅斯福路六段391旁候車亭,121.5407630,24.9923340,Taipei City Government,"Public Transportation Office, Taipei City Government",Bus Station,"Mrt Jingmei Station- N Exit 1-Sec. 6, Roosevelt rd.",Taipei City,Wenshan District,"The bus station next to No. 391, Sec. 6, Roosevelt Rd., Wenshan Dist., Taipei City?116?, Taiwan (R.O.C.)"
TPEE000131,379530800H,臺北市政府,臺北市公共運輸處,公車站,景文中學-S-木新路二段,,TAIFO,116,臺北市,文山區,116臺北市文山區木新路二段156號候車亭,121.5689620,24.9841300,Taipei City Government,"Public Transportation Office, Taipei City Government",Bus Station,"Jingwen High School -S-Sec. 2, Muxin rd.",Taipei City,Wenshan District,"The bus station front of No. 156, Sec. 2, Muxin Rd., Wenshan District, Taipei City 116, Taiwan,  (R.O.C.)"
TPEE000132,379530800H,臺北市政府,臺北市公共運輸處,公車站,名門社區-S-和平東路四段,,TAIFO,116,臺北市,文山區,116臺北市文山區和平東路四段81號對面候車亭,121.5675040,25.0052030,Taipei City Government,"Public Transportation Office, Taipei City Government",Bus Station,"Mingmen Community S-Sec. 4, Heping E. rd.",Taipei City,Wenshan District,"The bus station on the opposite side of No. 81, Sec. 4, Heping E. Rd., Wenshan Dist., Taipei City 116, Taiwan (R.O.C.)"
TPEE000133,379530800H,臺北市政府,臺北市公共運輸處,公車站,萬芳國小-S-萬和街,,TAIFO,116,臺北市,文山區,116臺北市文山區萬和街1號候車亭,121.5673121,25.0015163,Taipei City Government,"Public Transportation Office, Taipei City Government",Bus Station,Wanfang Elementary School S-Wanhe st.,Taipei City,Wenshan District,"The bus station near No. 1, Wanhe St., Wenshan District, Taipei City 116, Taiwan (R.O.C.)"
TPEE000134,379530800H,臺北市政府,臺北市公共運輸處,公車站,貓空纜車站-N-指南路三段,,TAIFO,116,臺北市,文山區,116臺北市文山區指南路三段38巷18-2號對面候車亭,121.5880269,24.9685662,Taipei City Government,"Public Transportation Office, Taipei City Government",Bus Station,"Maokong Gondola-N-Sec. 3, Zhinan Rd",Taipei City,Wenshan District,"The bus station on the opposite side of No. 18-2, Ln. 38, Sec. 3, Zhinan Rd., Wenshan Dist., Taipei City 116 , Taiwan (R.O.C.)"
TPEE000135,379530800H,臺北市政府,臺北市公共運輸處,公車站,實踐國小-W-忠順街一段,,TAIFO,116,臺北市,文山區,116臺北市文山區忠順街一段9巷1號旁候車亭,121.5569329,24.9835293,Taipei City Government,"Public Transportation Office, Taipei City Government",Bus Station,"Shijian Elementary School W-Sec. 1, Zhongshun st.",Taipei City,Wenshan District,"The bus station near No. 1, Ln. 9, Sec. 1, Zhongshun St., Wenshan District, Taipei City 116, Taiwan, R.O.C."
TPEE000136,379530800H,臺北市政府,臺北市公共運輸處,公車站,實踐國小-E-忠順街一段,,TAIFO,116,臺北市,文山區,116臺北市文山區忠順街一段9巷1號對面候車亭,121.5566900,24.9833700,Taipei City Government,"Public Transportation Office, Taipei City Government",Bus Station,"Shijian Elementary School E-Sec. 1, Zhongshun st.",Taipei City,Wenshan District,"The bus station on the opposite side No. 1, Ln. 9, Sec. 1, Zhongshun St., Wenshan District, Taipei City 116, Taiwan (R.O.C.)"
TPEE000137,379530800H,臺北市政府,臺北市公共運輸處,公車站,木柵高工-N-萬芳路,,TAIFO,116,臺北市,文山區,116臺北市文山區萬芳路22號對面候車亭,121.5707563,24.9964415,Taipei City Government,"Public Transportation Office, Taipei City Government",Bus Station,Muzha Vocational High School N-Wanfang rd.,Taipei City,Wenshan District,"The bus station on the opposite side of No. 22, Wanfang Rd., Wenshan District, Taipei City 116, Taiwan (R.O.C.)"
TPEE000138,379530800H,臺北市政府,臺北市公共運輸處,公車站,博嘉國小-W-木柵路四段,,TAIFO,116,臺北市,文山區,116臺北市文山區木柵路四段153巷3號對面候車亭,121.5751607,24.9990368,Taipei City Government,"Public Transportation Office, Taipei City Government",Bus Station,"Bojia Primary School-W-Sec. 4, Muzha Rd.",Taipei City,Wenshan District,"The bus station on the opposite side of No. 3, Ln. 153, Sec. 4, Muzha Rd., Wenshan Dist., Taipei City 116 , Taiwan (R.O.C.)"
TPEE000139,379530800H,臺北市政府,臺北市公共運輸處,公車站,世新大學-W-木柵路一段,,TAIFO,116,臺北市,文山區,116臺北市文山區木柵路一段17巷1號旁候車亭(木柵路一段本線),121.5441534,24.9885542,Taipei City Government,"Public Transportation Office, Taipei City Government",Bus Station,"Shih Hsin University W-Sec. 1, Muzha rd.",Taipei City,Wenshan District,"The bus station near No. 1, Ln. 17, Sec. 1, Muzha Rd., Wenshan District, Taipei City 116, Taiwan,  (R.O.C.)(On Muzha Rd. main line)"
TPEE000140,379530800H,臺北市政府,臺北市公共運輸處,公車站,辛亥國小-辛亥路四段,,TAIFO,116,臺北市,文山區,116臺北市文山區辛亥路四段87號對面候車亭,121.5585363,25.0070492,Taipei City Government,"Public Transportation Office, Taipei City Government",Bus Station,"Xinhai Elementary School-Sec. 4, Xinhai rd.",Taipei City,Wenshan District,"The bus station on the opposite side of No. 87, Sec. 4, Xinhai Rd., Wenshan Dist., Taipei City 116 , Taiwan (R.O.C.)"
TPEE000141,379530800H,臺北市政府,臺北市公共運輸處,公車站,景美國中-景中街,,TAIFO,116,臺北市,文山區,116臺北市文山區景中街27號旁候車亭,121.5425953,24.9929220,Taipei City Government,"Public Transportation Office, Taipei City Government",Bus Station,Jingmei Junior High School-Jingzhong st.,Taipei City,Wenshan District,"The bus station on the opposite side of No. 27, Jingzhong St., Wenshan Dist., Taipei City 116 , Taiwan (R.O.C.)"
TPEE000142,379530800H,臺北市政府,臺北市公共運輸處,公車站,久康街口-W-秀明路一段,,TAIFO,116,臺北市,文山區,116臺北市文山區秀明路一段31號旁候車亭,121.5646360,24.9897440,Taipei City Government,"Public Transportation Office, Taipei City Government",Bus Station,"Jiukang St. Entrance W-Sec. 1, Xiuming rd.",Taipei City,Wenshan District,"The bus station near No. 31, Sec. 1, Xiuming Rd., Wenshan District, Taipei City 116, Taiwan (R.O.C.)"
TPEE000143,379530800H,臺北市政府,臺北市公共運輸處,公車站,北政國中-S-指南路三段,,TAIFO,116,臺北市,文山區,116臺北市文山區指南路三段19號對面候車亭,121.5800366,24.9849685,Taipei City Government,"Public Transportation Office, Taipei City Government",Bus Station,"Beizheng Jr. High School S-Sec. 3, Zhinan rd.",Taipei City,Wenshan District,"The bus station on the opposite side of No. 19, Sec. 3, Zhinan Rd., Wenshan District, Taipei City 116, Taiwan (R.O.C.)"
TPEE000144,379530800H,臺北市政府,臺北市公共運輸處,公車站,榮總-E1-石牌路二段,,TAIFO,112,臺北市,北投區,112臺北市北投區明德路365號候車亭(教學大樓旁)(石牌路二段本線上),121.5197318,25.1185993,Taipei City Government,"Public Transportation Office, Taipei City Government",Bus Station,"Veterans General Hospital E1-Sec. 2, Shipai rd.",Taipei City,Beitou District,"The bus station  No. 365, Mingde Rd., Beitou Dist., Taipei City 112, Taiwan (R.O.C.) (Next to the teaching building)(On Sec. 2, Shipai Rd. main line)"
TPEE000145,379530800H,臺北市政府,臺北市公共運輸處,公車站,榮總-E2-石牌路二段,,TAIFO,112,臺北市,北投區,112臺北市北投區明德路365號候車亭(教學大樓旁)(石牌路二段本線上),121.5195514,25.1186742,Taipei City Government,"Public Transportation Office, Taipei City Government",Bus Station,"Veterans General Hospital E2-Sec. 2, Shipai rd.",Taipei City,Beitou District,"The bus station  No. 365, Mingde Rd., Beitou Dist., Taipei City 112, Taiwan (R.O.C.) (Next to the teaching building)(On Sec. 2, Shipai Rd. main line)"
TPEE000146,379530800H,臺北市政府,臺北市公共運輸處,公車站,捷運北投站-N1-光明路,,TAIFO,112,臺北市,北投區,112臺北市北投區光明路1號捷運北投站出口候車亭,121.4979702,25.1322801,Taipei City Government,"Public Transportation Office, Taipei City Government",Bus Station,Beitou Station(Beitou)-N1-Guangming Rd.,Taipei City,Beitou District,"The bus station No. 1, Guangming Rd., Beitou Dist.Beitou Station Exit, Taipei City 112 , Taiwan (R.O.C.)"
TPEE000147,379530800H,臺北市政府,臺北市公共運輸處,公車站,臺北城市大學前-E-學園路,,TAIFO,112,臺北市,北投區,112臺北市北投區學園路2號候車亭,121.4686994,25.1326685,Taipei City Government,"Public Transportation Office, Taipei City Government",Bus Station,Taipei Chengshih University of Science And Technology-E-Xueyuan rd.,Taipei City,Beitou District,"The bus station No. 2, Xueyuan Rd., Beitou Dist., Taipei City?112?, Taiwan (R.O.C.)"
TPEE000149,379530800H,臺北市政府,臺北市公共運輸處,公車站,文化國小-W-中央北路二段,,TAIFO,112,臺北市,北投區,112臺北市北投區中央北路二段27號對面候車亭,121.4958260,25.1367490,Taipei City Government,"Public Transportation Office, Taipei City Government",Bus Station,"Wenhua Elementary School W-Sec. 2, Zhongyang N. rd.",Taipei City,Beitou District,"The bus station on the opposite side of No. 27, Sec. 2, Zhongyang N. Rd., Beitou Dist., Taipei City 112 , Taiwan (R.O.C.)"
TPEE000150,379530800H,臺北市政府,臺北市公共運輸處,公車站,關渡國小-E-中央北路四段,,TAIFO,112,臺北市,北投區,112臺北市北投區中央北路四段584號斜對面候車亭,121.4664070,25.1268740,Taipei City Government,"Public Transportation Office, Taipei City Government",Bus Station,"Guandu Elementary School-Sec. 4, Zhongyang N. rd.",Taipei City,Beitou District,"The bus station diagonally across from No. 584, Sec. 4, Zhongyang N. Rd., Beitou Dist., Taipei City 112 , Taiwan (R.O.C.)"
TPEE000151,379530800H,臺北市政府,臺北市公共運輸處,公車站,惇敘工商(行義)-N-泉源路,,TAIFO,112,臺北市,北投區,112臺北市北投區泉源路200號旁(行義路本線)候車亭,121.5271530,25.1432390,Taipei City Government,"Public Transportation Office, Taipei City Government",Bus Station,Dunxu High School of Industry And Commerce(Xinyi)- N-Quanyuan rd.,Taipei City,Beitou District,"The bus station next to No. 200, Quanyuan Rd., Beitou Dist., Taipei City?112?, Taiwan (R.O.C.)(Xingyi Rd main line)"
TPEE000152,379530800H,臺北市政府,臺北市公共運輸處,公車站,清江國小-S-公館路,,TAIFO,112,臺北市,北投區,112臺北市北投區公館路215號對面候車亭,121.5076267,25.1273463,Taipei City Government,"Public Transportation Office, Taipei City Government",Bus Station,Qingjiang Elementary School S-Gongguan rd.,Taipei City,Beitou District,"The bus station on the opposite side of No. 215, Gongguan Rd., Beitou District, Taipei City 112, Taiwan (R.O.C.)"
TPEE000153,379530800H,臺北市政府,臺北市公共運輸處,公車站,石牌國小-W-石牌路一段,,TAIFO,112,臺北市,北投區,112臺北市北投區石牌路一段146號對面(石牌國小側)候車亭,121.5129207,25.1143300,Taipei City Government,"Public Transportation Office, Taipei City Government",Bus Station,"Shipai Elementary School W-Sec. 1, Shipai rd.",Taipei City,Beitou District,"The bus station on the opposite side of No. 148, Sec. 1, Shipai Rd., Beitou District, Taipei City 112, Taiwan, (R.O.C.)"
TPEE000154,379530800H,臺北市政府,臺北市公共運輸處,公車站,惇敘工商(泉源)-N-泉源路,,TAIFO,112,臺北市,北投區,112臺北市北投區泉源路221號對面候車亭,121.5271220,25.1443270,Taipei City Government,"Public Transportation Office, Taipei City Government",Bus Station,Dunxu High School of Industry And Commerce(Quanyuan)-N-Quanyuan rd.,Taipei City,Beitou District,"The bus station on the opposite side of No. 221, Quanyuan Rd., Beitou Dist., Taipei City?112?, Taiwan (R.O.C.)"
TPEE000155,379530800H,臺北市政府,臺北市公共運輸處,公車站,北投國小-E1-中央北路一段,,TAIFO,112,臺北市,北投區,112臺北市北投區中央北路一段36號對面候車亭,121.5008460,25.1338000,Taipei City Government,"Public Transportation Office, Taipei City Government",Bus Station,"Beitou Elementary School E1-Sec. 1, Zhongyang N. rd.",Taipei City,Beitou District,"The bus station on the opposite side of No. 36, Sec. 1, Zhongyang N. Rd., Beitou Dist., Taipei City 112 , Taiwan (R.O.C.)"
TPEE000156,379530800H,臺北市政府,臺北市公共運輸處,公車站,陽明公園服務中心-W-湖山路二段,,TAIFO,112,臺北市,北投區,112臺北市北投區湖山路一段與中興路口東南側候車亭,121.5398100,25.1565890,Taipei City Government,"Public Transportation Office, Taipei City Government",Bus Station,"Yanmingshan Park Visitor Center W-Sec. 2, Hushan rd.",Taipei City,Beitou District,"The bus station on the southeast side of Hushan Road Sec. 1, section and Zhongxing Road intersection ,Beitou Dist., Taipei City 112 , Taiwan (R.O.C.)"
TPEE000157,379530800H,臺北市政府,臺北市公共運輸處,公車站,關渡自然公園-N-關渡路,,TAIFO,112,臺北市,北投區,112臺北市北投區關渡路55號旁候車亭,121.4692230,25.1195710,Taipei City Government,"Public Transportation Office, Taipei City Government",Bus Station,Guandu Nature Park N-Guandu rd.,Taipei City,Beitou District,"The bus station next to No. 55, Guandu Rd., Beitou Dist., Taipei City?112?, Taiwan (R.O.C.)"
TPEE000158,379530800H,臺北市政府,臺北市公共運輸處,公車站,南松山-S-塔悠路,,TAIFO,105,臺北市,松山區,105臺北市松山區塔悠路82號旁候車亭,121.5698920,25.0531244,Taipei City Government,"Public Transportation Office, Taipei City Government",Bus Station,Nansongshan-Tayou S-Tayou rd.,Taipei City,Songshan District," The bus station near No. 82, Tayou Rd., Songshan Dist., Taipei City 105 , Taiwan (R.O.C.)"
TPEE000159,379530800H,臺北市政府,臺北市公共運輸處,公車站,聯合二村-W-民生東路五段,,TAIFO,105,臺北市,松山區,105臺北市松山區民生東路五段81號旁候車亭,121.5589521,25.0586536,Taipei City Government,"Public Transportation Office, Taipei City Government",Bus Station,"Lianhe Village 2-Sec. 5, Minsheng E. rd.",Taipei City,Songshan District,"The bus station near No. 81, Sec. 5, Minsheng E. Rd., Songshan District, Taipei City 105, Taiwan,  (R.O.C.)"
TPEE000160,379530800H,臺北市政府,臺北市公共運輸處,公車站,松山新城-S-光復北路,,TAIFO,105,臺北市,松山區,105臺北市松山區光復北路159號對面候車亭,121.5556694,25.0555899,Taipei City Government,"Public Transportation Office, Taipei City Government",Bus Station,Songshan Xincheng S-Guangfu N. rd.,Taipei City,Songshan District,"The bus station on the opposite side of No. 159, Guangfu N. Rd., Songshan District, Taipei City 105, Taiwan,  (R.O.C.)"
TPEE000161,379530800H,臺北市政府,臺北市公共運輸處,公車站,三軍總醫院松山分院-S-健康路,,TAIFO,105,臺北市,松山區,105臺北市松山區健康路156號候車亭,121.5572371,25.0536052,Taipei City Government,"Public Transportation Office, Taipei City Government",Bus Station,Tri-Service General Hospital S-Jiankang rd.,Taipei City,Songshan District,"The bus station No. 156, Jiankang Rd., Songshan District, Taipei City 105, Taiwan,  (R.O.C.)"
TPEE000163,379530800H,臺北市政府,臺北市公共運輸處,公車站,虎林街口-E-松隆路,,TAIFO,110,臺北市,信義區,110臺北市信義區松隆路282號旁候車亭,121.5755806,25.0484529,Taipei City Government,"Public Transportation Office, Taipei City Government",Bus Station,Hulin Street-E-Songlong Road,Taipei City,Xinyi District,"Bus station next to No. 282, Songlong Rd., Xinyi Dist., Taipei City 110 , Taiwan (R.O.C.)"
TPEE000164,379530800H,臺北市政府,臺北市公共運輸處,公車站,健康新城-W-健康路,,TAIFO,105,臺北市,松山區,105臺北市松山區健康路195號候車亭,121.5622100,25.0541990,Taipei City Government,"Public Transportation Office, Taipei City Government",Bus Station,Jiankang New Village W-Jiankang rd.,Taipei City,Songshan District,"The bus station near No. 195, Jiankang Rd., Songshan District, Taipei City 105, Taiwan,  (R.O.C.)"
TPEE000165,379530800H,臺北市政府,臺北市公共運輸處,公車站,西松國小-N-三民路,,TAIFO,105,臺北市,松山區,105臺北市松山區三民路38號旁候車亭,121.5639287,25.0531648,Taipei City Government,"Public Transportation Office, Taipei City Government",Bus Station,Xisong Elementary School N-Sanmin rd.,Taipei City,Songshan District," The bus station near No. 38, Sanmin Rd., Songshan Dist., Taipei City 105 , Taiwan (R.O.C.)"
TPEE000166,379530800H,臺北市政府,臺北市公共運輸處,公車站,發電所(西松高中)-N-塔悠路,,TAIFO,105,臺北市,松山區,105臺北市松山區塔悠路157號旁候車亭,121.5699569,25.0550042,Taipei City Government,"Public Transportation Office, Taipei City Government",Bus Station,Power Sta.(Xisong High School)-N-Tayou rd.,Taipei City,Songshan District,"The bus station next to No. 157, Tayou Rd., Songshan Dist., Taipei City?105?, Taiwan (R.O.C.)"
TPEE000168,379530800H,臺北市政府,臺北市公共運輸處,公車站,塔悠路-N-塔悠路,,TAIFO,105,臺北市,松山區,105臺北市松山區塔悠路311號旁邊候車亭,121.5688233,25.0610086,Taipei City Government,"Public Transportation Office, Taipei City Government",Bus Station,Tayou Rd. N-Tayou rd.,Taipei City,Songshan District,"The bus station near No. 311, Tayou Rd., Songshan District, Taipei City 105, Taiwan,  (R.O.C.)"
TPEE000169,379530800H,臺北市政府,臺北市公共運輸處,公車站,永吉國中-W-松隆路,,TAIFO,110,臺北市,信義區,110臺北市信義區松隆路208號對面候車亭,121.5730846,25.0474999,Taipei City Government,"Public Transportation Office, Taipei City Government",Bus Station,Yong-Ji Junior High School-W-Songlong Road,Taipei City,Xinyi District,"The bus station on the opposite side of No. 208, Songlong Rd., Xinyi Dist., Taipei City 110, Taiwan (R.O.C.)"
TPEE000170,379530800H,臺北市政府,臺北市公共運輸處,公車站,雅祥公園-S-松信路,,TAIFO,110,臺北市,信義區,110臺北市信義區松信路55號對面候車亭,121.5720915,25.0475874,Taipei City Government,"Public Transportation Office, Taipei City Government",Bus Station,Yaxiang Park-S-Songxin Road,Taipei City,Xinyi District,"The bus station on the opposite side of No. 55, Songxin Rd., Xinyi Dist., Taipei City 110  , Taiwan (R.O.C.)"
TPEE000171,379530800H,臺北市政府,臺北市公共運輸處,公車站,市政府-松壽-W1-松壽路,,TAIFO,110,臺北市,信義區,110臺北市信義區市府路1號南側(松壽路)候車亭,121.5645472,25.0359621,Taipei City Government,"Public Transportation Office, Taipei City Government",Bus Station,Municipal Government-Songshou-W1-Songshou Road,Taipei City,Xinyi District,"The bus station, South Side No. 1, Shifu Rd., Xinyi Dist., Taipei City 110, Taiwan (R.O.C.)。"
TPEE000172,379530800H,臺北市政府,臺北市公共運輸處,公車站,松山高中-松隆-W-松隆路,,TAIFO,110,臺北市,信義區,110臺北市信義區松隆路29號前方候車亭,121.5675868,25.0437932,Taipei City Government,"Public Transportation Office, Taipei City Government",Bus Station,Songshan High School-Songlong-W-Songlong Road,Taipei City,Xinyi District,"The bus station front of No. 29, Songlong Rd., Xinyi Dist., Taipei City 110, Taiwan (R.O.C.)"
TPEE000173,379530800H,臺北市政府,臺北市公共運輸處,公車站,福德國小-E-福德街,,TAIFO,110,臺北市,信義區,110臺北市信義區福德街304號對面候車亭,121.5873178,25.0392232,Taipei City Government,"Public Transportation Office, Taipei City Government",Bus Station,"Fude Primary School-E-Fude St., Xinyi Dist.",Taipei City,Xinyi District,"The bus station on the opposite side of No. 304, Fude St., Xinyi Dist., Taipei City 110 , Taiwan (R.O.C.)"
TPEE000175,379530800H,臺北市政府,臺北市公共運輸處,公車站,市政府(市府)N1-市府路,,TAIFO,110,臺北市,信義區,110臺北市信義區市府路1號西側旁候車亭,121.5638073,25.0383389,Taipei City Government,"Public Transportation Office, Taipei City Government",Bus Station,City Hall(City Hall)N1 - City Hall Road,Taipei City,Xinyi District,"The bus station next to the west side of No. 1, Shifu Rd., Xinyi Dist., Taipei City 110 , Taiwan (R.O.C.)"
TPEE000177,379530800H,臺北市政府,臺北市公共運輸處,公車站,富台公園-虎林街,,TAIFO,110,臺北市,信義區,110臺北市信義區松信路209號旁候車亭,121.5720433,25.0420591,Taipei City Government,"Public Transportation Office, Taipei City Government",Bus Station,Futai Park-Hulin Street,Taipei City,Xinyi District,"The bus station near No. 209, Songxin Rd., Xinyi Dist., Taipei City 110 , Taiwan (R.O.C.)"
TPEE000178,379530800H,臺北市政府,臺北市公共運輸處,公車站,虎林街口-W-松隆路,,TAIFO,110,臺北市,信義區,110臺北市信義區松隆路163號旁候車亭,121.5746688,25.0484922,Taipei City Government,"Public Transportation Office, Taipei City Government",Bus Station,Hulin Street-W-Songlong Road,Taipei City,Xinyi District,"The bus station near No. 163, Songlong Rd., Xinyi Dist., Taipei City 110 , Taiwan (R.O.C.)"
TPEE000179,379530800H,臺北市政府,臺北市公共運輸處,公車站,中油大樓-W-松仁路,,TAIFO,110,臺北市,信義區,110臺北市信義區松仁路3號旁(松高路本線上)候車亭,121.5693607,25.0391506,Taipei City Government,"Public Transportation Office, Taipei City Government",Bus Station,CPC Building-W-Songren Road,Taipei City,Xinyi District,"The bus station near No. 3, Songren Rd., Xinyi Dist., Taipei City 110, Taiwan (R.O.C.)"
TPEE000180,379530800H,臺北市政府,臺北市公共運輸處,公車站,南港行政中心-W1-南港路一段,,TAIFO,115,臺北市,南港區,115臺北市南港區南港路一段360號候車亭,121.6066407,25.0544318,Taipei City Government,"Public Transportation Office, Taipei City Government",Bus Station,"Nangang Dist. Admin. Center-Xinyi W-Sec. 1, Nangang rd.",Taipei City,Nangang District,"The bus station No. 360, Sec. 1, Nangang Rd., Nangang Dist., Taipei City? 115?, Taiwan (R.O.C.)"
TPEE000181,379530800H,臺北市政府,臺北市公共運輸處,公車站,育成高中-E-重陽路,,TAIFO,115,臺北市,南港區,115臺北市南港區重陽路431號對面候車亭,121.6093900,25.0588280,Taipei City Government,"Public Transportation Office, Taipei City Government",Bus Station,Yucheng High School E-Chongyang rd.,Taipei City,Nangang District,"The bus station  on the opposite side of No. 431, Chongyang Rd., Nangang District, Taipei City 115, Taiwan,  (R.O.C.)"
TPEE000182,379530800H,臺北市政府,臺北市公共運輸處,公車站,胡適國小-N-舊莊街一段,,TAIFO,115,臺北市,南港區,115臺北市南港區舊莊街一段3巷3弄8號對面候車亭(大坑街本線),121.6190560,25.0433780,Taipei City Government,"Public Transportation Office, Taipei City Government",Bus Station,"Hushi Elementary School N-Sec. 1, Jiuzhuang st.",Taipei City,Nangang District,"The bus station on the opposite side of No. 8, Aly. 3, Ln. 3, Sec. 1, Jiuzhuang St., Nangang Dist., Taipei City 115, Taiwan (R.O.C.)(Dakeng St Main Line)"
TPEE000183,379530800H,臺北市政府,臺北市公共運輸處,公車站,舊莊國小-E-舊莊街一段,,TAIFO,115,臺北市,南港區,115臺北市南港區舊莊街一段147號斜對面候車亭,121.6202390,25.0398170,Taipei City Government,"Public Transportation Office, Taipei City Government",Bus Station,"?Jiuzhuang?Elementary School-Sec. 1, Jiuzhuang st.",Taipei City,Nangang District,"The bus station diagonally opposite side of No. 147, Sec. 1, Jiuzhuang St., Nangang Dist., Taipei City? 115?, Taiwan (R.O.C.)"
TPEE000185,379530800H,臺北市政府,臺北市公共運輸處,公車站,南港高中-N-向陽路,,TAIFO,115,臺北市,南港區,115臺北市南港區向陽路80號旁候車亭,121.5952520,25.0529400,Taipei City Government,"Public Transportation Office, Taipei City Government",Bus Station,Nan-Gang High School-N-Xiangyang Rd,Taipei City,Nangang District,"The bus station next to No. 80, Xiangyang Rd., Nangang Dist., Taipei City 115 , Taiwan (R.O.C.)"
TPEE000186,379530800H,臺北市政府,臺北市公共運輸處,公車站,南港高中-S-向陽路,,TAIFO,115,臺北市,南港區,115臺北市南港區向陽路21號旁候車亭,121.5950176,25.0528947,Taipei City Government,"Public Transportation Office, Taipei City Government",Bus Station,Nangang Senior High School S-Xiangyang rd.,Taipei City,Nangang District,"The bus station near No. 21, Xiangyang Rd., Nangang District, Taipei City 115, Taiwan, (R.O.C.)"
TPEE000188,379530800H,臺北市政府,臺北市公共運輸處,公車站,南港展覽館-W1-南港路一段,,TAIFO,115,臺北市,南港區,115臺北市南港區南港路一段67號對面候車亭,121.6158039,25.0553104,Taipei City Government,"Public Transportation Office, Taipei City Government",Bus Station,"Twtc Nangang Exhibition Hall- W1-Sec. 1, Nangang rd.",Taipei City,Nangang District,"The bus station on the opposite side of No. 67, Sec. 1, Nangang Rd., Nangang Dist., Taipei City?115?, Taiwan (R.O.C.)"
TPEE000189,379530800H,臺北市政府,臺北市公共運輸處,公車站,捷運南港站-W-忠孝東路七段,,TAIFO,115,臺北市,南港區,115臺北市南港區忠孝東路七段與興中路口東北側候車亭,121.6083520,25.0524000,Taipei City Government,"Public Transportation Office, Taipei City Government",Bus Station,"Nangang  station-W-Sec. 7, Zhongxiao E. Rd. ",Taipei City,Nangang District,"The bus station on the northeast side of Sec. 7, Zhongxiao E. Rd and Xingzhong Rd Intersection, Nangang Distt,  Taipei City 115 .(R.O.C.)"
TPEE000190,379530800H,臺北市政府,臺北市公共運輸處,公車站,環東大道口-經貿二路,,TAIFO,115,臺北市,南港區,115臺北市南港區經貿二路105巷與經貿一路交岔口東北側候車亭(經貿一路本線上),121.6193014,25.0594189,Taipei City Government,"Public Transportation Office, Taipei City Government",Bus Station,"Huandong Blvd. Intersection-Ln. 105, Jingmao 2nd rd.",Taipei City,Nangang District,"The bus station on the northeast side of Ln. 105, Jingmao 2nd Rd., Nangang Dist.,Jingmao 1st Rd., Nangang Dist., Taipei City 115 , Taiwan (R.O.C.)"
TPEE000191,379530800H,臺北市政府,臺北市公共運輸處,公車站,環東大道口-經貿二路,,TAIFO,115,臺北市,南港區,115臺北市南港區經貿二路近157巷口候車亭,121.6185082,25.0601105,Taipei City Government,"Public Transportation Office, Taipei City Government",Bus Station,Huandong Avenue Exit - Economic and Trade 2nd Road,Taipei City,Nangang District,"The bus station No. 157, Jingmao 2nd Rd., Nangang Dist., Taipei City115, Taiwan (R.O.C.)"
TPEE000192,379530800H,臺北市政府,臺北市公共運輸處,公車站,青年公園-E-青年路,,TAIFO,108,臺北市,萬華區,108臺北市萬華區青年路6號對面候車亭,121.5062175,25.0259378,Taipei City Government,"Public Transportation Office, Taipei City Government",Bus Station,Youth Park-Youth E-Qingnian rd.,Taipei City,Wanhua District,"The bus station on the opposite side of No. 6, Qingnian Rd., Wanhua Dist., Taipei City 108 , Taiwan (R.O.C.)"
TPEE000193,379530800H,臺北市政府,臺北市公共運輸處,公車站,青年新城-E-青年路,,TAIFO,108,臺北市,萬華區,108臺北市萬華區青年路32號對面候車亭,121.5046729,25.0254715,Taipei City Government,"Public Transportation Office, Taipei City Government",Bus Station,youth community-E-Qingnian Rd.,Taipei City,Wanhua District,"The bus station on the opposite side of No. 32, Qingnian Rd., Wanhua Dist., Taipei City108 , Taiwan (R.O.C.)"
TPEE000194,379530800H,臺北市政府,臺北市公共運輸處,公車站,青年路-E-青年路,,TAIFO,108,臺北市,萬華區,108臺北市萬華區青年路80號對面候車亭,121.5027548,25.0232161,Taipei City Government,"Public Transportation Office, Taipei City Government",Bus Station,Qiangnian Rd.-Qingnian rd.,Taipei City,Wanhua District,"The bus station on the opposite side of No. 80, Qingnian Rd., Wanhua Dist., Taipei City 108 , Taiwan (R.O.C.)"
TPEE000196,379530800H,臺北市政府,臺北市公共運輸處,公車站,中華路北站-S1-中華路一段,,TAIFO,108,臺北市,萬華區,108臺北市萬華區中華路一段94號前候車亭,121.5086686,25.0445626,Taipei City Government,"Public Transportation Office, Taipei City Government",Bus Station,"Zhonghua Rd. N. Stop -RoadsideS1-Sec. 1, Zhonghua rd.",Taipei City,Wanhua District,"The bus station next to No. 94, Sec. 1, Zhonghua Rd., Wanhua Dist., Taipei City?108, Taiwan (R.O.C.)"
TPEE000197,379530800H,臺北市政府,臺北市公共運輸處,公車站,中正新城-N-青年路,,TAIFO,108,臺北市,萬華區,108臺北市萬華區青年路56號對面候車亭,121.5031430,25.0248140,Taipei City Government,"Public Transportation Office, Taipei City Government",Bus Station,Zhongzheng New Village N-Qingnian rd.,Taipei City,Wanhua District,"The bus station on the opposite side of No. 56, Qingnian Rd., Wanhua District, Taipei City 108, Taiwan,  (R.O.C.)"
TPEE000198,379530800H,臺北市政府,臺北市公共運輸處,公車站,萬大國小-N1-萬大路,,TAIFO,108,臺北市,萬華區,108臺北市萬華區萬大路333號號旁候車亭,121.5002100,25.0238800,Taipei City Government,"Public Transportation Office, Taipei City Government",Bus Station,Wanda Elementary School-N1-Wanda Rd.,Taipei City,Wanhua District,"The bus station next to No. 333, Wanda Rd., Wanhua Dist., Taipei City 108 , Taiwan (R.O.C.)"
TPEE000199,379530800H,臺北市政府,臺北市公共運輸處,公車站,聯合醫院和平院區-S1-中華路二段,,TAIFO,108,臺北市,萬華區,108臺北市萬華區中華路二段1號對面候車亭,121.5064300,25.0364800,Taipei City Government,"Public Transportation Office, Taipei City Government",Bus Station,"Tcuh Heping Branch-Sec. 2, Zhonghua rd.",Taipei City,Wanhua District,"The bus station on the opposite side of No. 1, Sec. 2, Zhonghua Rd., Wanhua Dist., Taipei City 108 , Taiwan (R.O.C.)"
TPEE000201,379530800H,臺北市政府,臺北市公共運輸處,公車站,阿波羅大廈-E-忠孝東路四段,,TAIFO,106,臺北市,大安區,106臺北市大安區忠孝東路四段226號旁候車亭,121.5537399,25.0413374,Taipei City Government,"Public Transportation Office, Taipei City Government",Bus Station,"Apollo Building-E-Sec. 4, Zhongxiao E. Rd.",Taipei City,Da’an District,"The bus station front of No.242, Sec. 4, Zhongxiao E. Rd., Da’an Dist., Taipei City 106, Taiwan (R.O.C.)"
TPEE000202,379530800H,臺北市政府,臺北市公共運輸處,公車站,東吳大學(錢穆故居)-W1-至善路二段,,TAIFO,111,臺北市,士林區,111臺北市士林區至善路二段1之1號西側約200M候車亭,121.5413063,25.0974640,Taipei City Government,"Public Transportation Office, Taipei City Government",Bus Station,"Soochow University(Chien Mu House)-W1-Sec. 2, Zhishan Rd",Taipei City,Shilin District,"The bus station about 200M west of No. 1-1, Sec. 2, Zhishan Rd., Shilin Dist., Taipei City 111 , Taiwan (R.O.C.)"
TPEE000203,379530800H,臺北市政府,臺北市公共運輸處,公車站,蘭雅新城-N-忠誠路一段,,TAIFO,111,臺北市,士林區,111臺北市士林區忠誠路一段159號旁候車亭,121.5301510,25.1070760,Taipei City Government,"Public Transportation Office, Taipei City Government",Bus Station,"Lanya New Village-N-Sec. 1, Zhongcheng Rd.",Taipei City,Shilin District,"The bus station near No. 159, Sec. 1, Zhongcheng Rd., Shilin Dist., Taipei City 111 , Taiwan (R.O.C.)"
TPEE000204,379530800H,臺北市政府,臺北市公共運輸處,公車站,士林區行政中心-E1-中正路,,TAIFO,111,臺北市,士林區,111臺北市士林區中正路439號前方候車亭,121.5195527,25.0928684,Taipei City Government,"Public Transportation Office, Taipei City Government",Bus Station,Shilin Admin. Center(Zhongzheng)-E1-Zhongzheng Rd.,Taipei City,Shilin District,"The bus station front of No.439, Zhongzheng Rd., Shilin Dist., Taipei City 111, Taiwan, R.O.C."
TPEE000205,379530800H,臺北市政府,臺北市公共運輸處,公車站,芝山國小-W-德行東路,,TAIFO,111,臺北市,士林區,111臺北市士林區德行東路285號候車亭,121.5372942,25.1103315,Taipei City Government,"Public Transportation Office, Taipei City Government",Bus Station,Zhishan Elementary School-W-Dexing E. Rd.,Taipei City,Shilin District,"The bus station No.285, Dexing E. Rd., Shilin Dist., Taipei City 111, Taiwan, R.O.C."
TPEE000206,379530800H,臺北市政府,臺北市公共運輸處,公車站,名山里-W-雨聲街,,TAIFO,111,臺北市,士林區,111臺北市士林區雨聲街44號候車亭,121.5289610,25.1024470,Taipei City Government,"Public Transportation Office, Taipei City Government",Bus Station,Mingshan Li-W-Yusheng St.,Taipei City,Shilin District,"The bus station on the No. 44, Yusheng St., Shilin Dist., Taipei City 111 , Taiwan (R.O.C.)"
TPEE000207,379530800H,臺北市政府,臺北市公共運輸處,公車站,百齡里-S-華齡街,,TAIFO,111,臺北市,士林區,111臺北市士林區福港街205號旁候車亭(華齡街本線上近前港街交叉口),121.5193442,25.0853784,Taipei City Government,"Public Transportation Office, Taipei City Government",Bus Station,Bailing Vil-S-Hualing St.,Taipei City,Shilin District,"The bus station(on Hualing St Main Line and near the intersection of Qiangang St)  next to No. 205, Fugang St., Shilin Dist., Taipei City 111 , Taiwan (R.O.C.)"
TPEE000209,379530800H,臺北市政府,臺北市公共運輸處,公車站,富洲里-S-延平北路九段,,TAIFO,111,臺北市,士林區,111臺北市士林區延平北路九段313號候車亭,121.4686500,25.1090810,Taipei City Government,"Public Transportation Office, Taipei City Government",Bus Station,"Fuzhou Li　-S-Sec. 9, Yanping N. Rd.",Taipei City,Shilin District,"The bus station No.313, Sec. 9, Yanping N. Rd., Shilin Dist., Taipei City 111, Taiwan, R.O.C."
TPEE000210,379530800H,臺北市政府,臺北市公共運輸處,公車站,普濟堂-S-延平北路七段,,TAIFO,111,臺北市,士林區,111臺北市士林區延平北路七段5號旁候車亭,121.4973600,25.0941000,Taipei City Government,"Public Transportation Office, Taipei City Government",Bus Station,"Puji Temple-S-Sec. 7, Yanping N. Rd.",Taipei City,Shilin District,"The bus station near No. 5, Sec. 7, Yanping N. Rd., Shilin Dist., Taipei City 111, Taiwan (R.O.C.)"
TPEE000211,379530800H,臺北市政府,臺北市公共運輸處,公車站,上灣仔-成功路二段,,TAIFO,114,臺北市,內湖區,114臺北市內湖區成功路二段276號旁候車亭,121.5904840,25.0669760,Taipei City Government,"Public Transportation Office, Taipei City Government",Bus Station,"Shangwanzi-Sec. 2, Chenggong Rd.",Taipei City,Neihu District,"The bus station near No.276, Sec. 2, Chenggong Rd., Neihu Dist., Taipei City 114, Taiwan, R.O.C."
TPEE000212,379530800H,臺北市政府,臺北市公共運輸處,公車站,蘭雅新城-S-忠誠路一段,,TAIFO,111,臺北市,士林區,111臺北市士林區忠誠路一段157號對面候車亭,121.5298407,25.1071395,Taipei City Government,"Public Transportation Office, Taipei City Government",Bus Station,"Lanya New Village-S-Sec. 1, Zhongcheng Rd.",Taipei City,Shilin District,"The bus station on the opposite side of No.157, Sec. 1, Zhongcheng Rd., Shilin Dist., Taipei City 111, Taiwan (R.O.C.)"
TPEE000213,379530800H,臺北市政府,臺北市公共運輸處,公車站,中社路11巷-W-中社路二段,,TAIFO,111,臺北市,士林區,111臺北市士林區中社路一段與中社路一段11巷31弄口東北側候車亭,121.5601319,25.1110987,Taipei City Government,"Public Transportation Office, Taipei City Government",Bus Station,"Zhongshe Rd. 11th. Lane-W-Sec. 2, Zhongshe Rd.",Taipei City,Shilin District,"The bus station near the lane entrance of No.5, Sec. 1, Zhongshe Rd., Shilin Dist., Taipei City 111, Taiwan (R.O.C.)"
TPEE000214,379530800H,臺北市政府,臺北市公共運輸處,公車站,芝山岩-E-至誠路一段,,TAIFO,111,臺北市,士林區,111臺北市士林區至誠路一段26號對面候車亭,121.5367056,25.1012629,Taipei City Government,"Public Transportation Office, Taipei City Government",Bus Station,"Zhishanyan-E-Sec. 1, Zhicheng Rd.",Taipei City,Shilin District,"The bus station on the opposite side of No. 26, Sec. 1, Zhicheng Rd., Shilin Dist., Taipei City 111 , Taiwan (R.O.C.)"
TPEE000215,379530800H,臺北市政府,臺北市公共運輸處,公車站,至善國中-E-至善路二段,,TAIFO,111,臺北市,士林區,111臺北市士林區至善路二段360號旁候車亭,121.5555859,25.1037735,Taipei City Government,"Public Transportation Office, Taipei City Government",Bus Station,"Zhishan Junior High School, Section 2, Zhishan Road",Taipei City,Shilin District,"Bus Stop Next to No. 360 Section 2, Zhishan Road, Shilin District, Taipei 111"
TPEE000216,379530800H,臺北市政府,臺北市公共運輸處,公車站,公教住宅-N-基河路,,TAIFO,111,臺北市,士林區,111臺北市士林區基河路192號對面候車亭,121.5220556,25.0907481,Taipei City Government,"Public Transportation Office, Taipei City Government",Bus Station,Civil Service Housing-N-Jihe Rd.,Taipei City,Shilin District,"The bus station on the opposite side of No.192, Jihe Rd., Shilin Dist., Taipei City 111, Taiwan (R.O.C.)"
TPEE000217,379530800H,臺北市政府,臺北市公共運輸處,公車站,士林市場(銘傳會館)-S-基河路,,TAIFO,111,臺北市,士林區,111臺北市士林區基河路110號前候車亭,121.5236854,25.0881401,Taipei City Government,"Public Transportation Office, Taipei City Government",Bus Station,Shilin Market (Ming Chuan Hall)-S-Jihe Road,Taipei City,Shilin District,"The bus station front of No. 110, Jihe Rd., Shilin Dist., Taipei City 111 , Taiwan (R.O.C.)"
TPEE000218,379530800H,臺北市政府,臺北市公共運輸處,公車站,外雙溪橋-W-至善路二段,,TAIFO,111,臺北市,士林區,111臺北市士林區至善路二段471號候車亭,121.5579603,25.1114278,Taipei City Government,"Public Transportation Office, Taipei City Government",Bus Station,"Waishuangxi Bridge-W-Sec. 2, Zhishan Rd.",Taipei City,Shilin District,"The bus station No.471, Sec. 2, Zhishan Rd., Shilin Dist., Taipei City 111, Taiwan (R.O.C.)"
TPEE000219,379530800H,臺北市政府,臺北市公共運輸處,公車站,士林簡易庭-N-重慶北路四段,,TAIFO,111,臺北市,士林區,111臺北市士林區重慶北路四段58號前方候車亭,121.5131249,25.0815487,Taipei City Government,"Public Transportation Office, Taipei City Government",Bus Station,"Shilin Small Claims Court-N-Sec. 4, Chongqing N. Rd.",Taipei City,Shilin District,"The bus station on the opposite side of Sec. 4, Chongqing N. Rd., Shilin Dist., Taipei City 111 , Taiwan (R.O.C.)"
TPEE000220,379530800H,臺北市政府,臺北市公共運輸處,公車站,雙溪別墅-S-至善路二段,,TAIFO,111,臺北市,士林區,111臺北市士林區至善路二段389號候車亭,121.5571400,25.1054300,Taipei City Government,"Public Transportation Office, Taipei City Government",Bus Station,"Shuangxi Bieshu-S-Sec. 2, Zhishan Rd.",Taipei City,Shilin District,"The bus station No.389, Sec. 2, Zhishan Rd., Shilin Dist., Taipei City 111, Taiwan,  (R.O.C.)"
TPEE000221,379530800H,臺北市政府,臺北市公共運輸處,公車站,沙崙-E-至善路三段,,TAIFO,111,臺北市,士林區,111臺北市士林區至善路三段76號旁候車亭,121.5667640,25.1133720,Taipei City Government,"Public Transportation Office, Taipei City Government",Bus Station,"Shalun-E-Sec. 3, Zhishan Rd.",Taipei City,Shilin District,"The bus station near No. 76, Sec. 3, Zhishan Rd., Shilin Dist., Taipei City 111 , Taiwan (R.O.C.)"
TPEE000222,379530800H,臺北市政府,臺北市公共運輸處,公車站,雙溪淨水廠-E-至善路三段,,TAIFO,111,臺北市,士林區,111臺北市士林區至善路三段110號旁候車亭,121.5696250,25.1144580,Taipei City Government,"Public Transportation Office, Taipei City Government",Bus Station,"Shuangxi Water Treatment Plant-E-Sec. 3, Zhishan Rd.",Taipei City,Shilin District,"The bus station near No.110, Sec. 3, Zhishan Rd., Shilin Dist., Taipei City 111, Taiwan (R.O.C.)"
TPEE000224,379530800H,臺北市政府,臺北市公共運輸處,公車站,礁坑-E-至善路三段,,TAIFO,111,臺北市,士林區,111臺北市士林區至善路三段175號往西約300m南側候車亭,121.5755546,25.1183123,Taipei City Government,"Public Transportation Office, Taipei City Government",Bus Station,"Jiaokeng-E-Sec. 3, Zhishan Rd.",Taipei City,Shilin District,"The bus station on the opposite side of No.161, Sec. 3, Zhishan Rd., Shilin Dist., Taipei City 111, Taiwan (R.O.C.)"
TPEE000225,379530800H,臺北市政府,臺北市公共運輸處,公車站,大豐-E-至善路三段,,TAIFO,111,臺北市,士林區,111臺北市士林區至善路三段230號附近候車亭,121.5815024,25.1198499,Taipei City Government,"Public Transportation Office, Taipei City Government",Bus Station,"Dafeng-E-Sec. 3, Zhishan Rd.",Taipei City,Shilin District,"The bus station on the opposite side of No.219, Sec. 3, Zhishan Rd., Shilin Dist., Taipei City 111, Taiwan (R.O.C.)"
TPEE000227,379530800H,臺北市政府,臺北市公共運輸處,公車站,陽明山國小-S-仰德大道三段,,TAIFO,111,臺北市,士林區,111臺北市士林區仰德大道三段40號對面候車亭,121.5521004,25.1179663,Taipei City Government,"Public Transportation Office, Taipei City Government",Bus Station,"Yangmingshan Elementary School-S-Sec. 3, Yangde Blvd.",Taipei City,Shilin District,"The bus station on the opposite side of No.40, Sec. 3, Yangde Blvd., Shilin Dist., Taipei City 111, Taiwan (R.O.C.)"
TPEE000228,379530800H,臺北市政府,臺北市公共運輸處,公車站,前港公園-N-華齡街,,TAIFO,111,臺北市,士林區,111臺北市士林區華齡街與後港街134巷口西南側候車亭,121.5194448,25.0865899,Taipei City Government,"Public Transportation Office, Taipei City Government",Bus Station,Qiangang Park-N-Hualing St.,Taipei City,Shilin District,"The bus station northwest side of No. 134, Hougang St.and Hualing St., Shilin Dist., Taipei City 111 , Taiwan (R.O.C.)"
TPEE000229,379530800H,臺北市政府,臺北市公共運輸處,公車站,雨農國小-N1-忠誠路一段,,TAIFO,111,臺北市,士林區,111臺北市士林區忠誠路一段106號前候車亭,121.5285489,25.1053720,Taipei City Government,"Public Transportation Office, Taipei City Government",Bus Station,"Yunong Elementary School-N1-Sec. 1, Zhongcheng Rd.",Taipei City,Shilin District,"The bus station front of No.104, Sec. 1, Zhongcheng Rd., Shilin Dist., Taipei City 111, Taiwan (R.O.C.)"
TPEE000230,379530800H,臺北市政府,臺北市公共運輸處,公車站,忠誠公園-N1-忠誠路一段,,TAIFO,111,臺北市,士林區,111臺北市士林區忠誠路一段12號對面候車亭,121.5255827,25.1039484,Taipei City Government,"Public Transportation Office, Taipei City Government",Bus Station,"Zhongcheng park-N1-Sec. 1, Zhongcheng Rd.",Taipei City,Shilin District,"The bus station on the opposite side of No.12, Sec. 1, Zhongcheng Rd., Shilin Dist., Taipei City 111, Taiwan (R.O.C.)"
TPEE000231,379530800H,臺北市政府,臺北市公共運輸處,公車站,明德樂園-E-至善路三段,,TAIFO,111,臺北市,士林區,111臺北市士林區至善路三段51號對面候車亭,121.5649495,25.1129090,Taipei City Government,"Public Transportation Office, Taipei City Government",Bus Station,"Meandear Paradise-E-Sec. 3, Zhishan Rd.",Taipei City,Shilin District,"The bus station on the opposite side of No.59, Sec. 3, Zhishan Rd., Shilin Dist., Taipei City 111,Taiwan (R.O.C.)"
TPEE000232,379530800H,臺北市政府,臺北市公共運輸處,公車站,山仔后派出所-N-格致路,,TAIFO,111,臺北市,士林區,111臺北市士林區格致路8之2號候車亭,121.5462813,25.1362581,Taipei City Government,"Public Transportation Office, Taipei City Government",Bus Station,ShanzihouPoliceSubstation-N-Gezhi Rd.,Taipei City,Shilin District,"The bus station No.8-2, Gezhi Rd., Shilin Dist., Taipei City 111, Taiwan (R.O.C.)"
TPEE000233,379530800H,臺北市政府,臺北市公共運輸處,公車站,至善路三段-E-至善路三段,,TAIFO,111,臺北市,士林區,111臺北市士林區至善路三段129號斜對面候車亭,121.5717988,25.1149645,Taipei City Government,"Public Transportation Office, Taipei City Government",Bus Station,"Zhishan Rd. Sec. 3-E-Sec. 3, Zhishan Rd.",Taipei City,Shilin District,"The bus station on the opposite side of No.129-1, Sec. 3, Zhishan Rd., Shilin Dist., Taipei City 111, Taiwan (R.O.C.)"
TPEE000234,379530800H,臺北市政府,臺北市公共運輸處,公車站,礁坑橋-E-至善路三段,,TAIFO,111,臺北市,士林區,111臺北市士林區至善路三段189號對面候車亭,121.5785010,25.1194747,Taipei City Government,"Public Transportation Office, Taipei City Government",Bus Station,"Jiaokeng Bridge(Puyiyuan)-E-Sec. 3, Zhishan Rd.",Taipei City,Shilin District,"The bus station on the opposite side of No.187, Sec. 3, Zhishan Rd., Shilin Dist., Taipei City 111, Taiwan (R.O.C.)"
TPEE000235,379530800H,臺北市政府,臺北市公共運輸處,公車站,士商路-S-士商路,,TAIFO,111,臺北市,士林區,111臺北市士林區士商路55號候車亭,121.5199810,25.0909900,Taipei City Government,"Public Transportation Office, Taipei City Government",Bus Station,Shishang Rd.-S-Shishang Rd.,Taipei City,Shilin District,"The bus station No.55, Shishang Rd., Shilin Dist., Taipei City 111, Taiwan (R.O.C.)"
TPEE000236,379530800H,臺北市政府,臺北市公共運輸處,公車站,士東路-W-士東路,,TAIFO,111,臺北市,士林區,111臺北市士林區士東路270號對面候車亭,121.5367603,25.1134517,Taipei City Government,"Public Transportation Office, Taipei City Government",Bus Station,Shidong Rd.-W-Shidong Rd.,Taipei City,Shilin District,"The bus station on the opposite side of No.268, Shidong Rd., Shilin Dist., Taipei City 111, Taiwan (R.O.C.)"
TPEE000238,379530800H,臺北市政府,臺北市公共運輸處,公車站,忠誠公園-W-忠誠路一段,,TAIFO,111,臺北市,士林區,111臺北市士林區忠誠路一段22號候車亭,121.5259022,25.1043194,Taipei City Government,"Public Transportation Office, Taipei City Government",Bus Station,"Zhongcheng park-W-Sec. 1, Zhongcheng Rd.",Taipei City,Shilin District,"The bus station No.16, Sec. 1, Zhongcheng Rd., Shilin Dist., Taipei City 111, Taiwan (R.O.C.)"
TPEE000239,379530800H,臺北市政府,臺北市公共運輸處,公車站,溪山國小-E-至善路三段,,TAIFO,111,臺北市,士林區,111臺北市士林區至善路三段199號斜對面候車亭,121.5804389,25.1197157,Taipei City Government,"Public Transportation Office, Taipei City Government",Bus Station,"Xishan Elementary School-E-Sec. 3, Zhishan Rd.",Taipei City,Shilin District,"The bus station on the opposite side of No. 199, Sec. 3, Zhishan Rd., Shilin Dist., Taipei City 111 , Taiwan (R.O.C.)"
TPEE000240,379530800H,臺北市政府,臺北市公共運輸處,公車站,雙溪公園-E-至善路一段,,TAIFO,111,臺北市,士林區,111臺北市士林區至善路一段118號對面候車亭,121.5383678,25.0980333,Taipei City Government,"Public Transportation Office, Taipei City Government",Bus Station,"ShuangxiPark-E-Sec. 1, Zhishan Rd.",Taipei City,Shilin District,"The bus station No.117, Sec. 1, Zhishan Rd., Shilin Dist., Taipei City 111,Taiwan (R.O.C.)"
TPEE000241,379530800H,臺北市政府,臺北市公共運輸處,公車站,雙溪公園-W-至善路一段,,TAIFO,111,臺北市,士林區,111臺北市士林區至善路一段117號(至善公園停車場對面候車亭),121.5379236,25.0977808,Taipei City Government,"Public Transportation Office, Taipei City Government",Bus Station,"Shuangxi Park-W-Sec. 1, Zhishan Rd.",Taipei City,Shilin District,"The bus station opposite to the parking lot of Zhishan Garden,No. 117, Sec. 1, Zhishan Rd., Shilin Dist., Taipei City 111 , Taiwan (R.O.C.)"
TPEE000242,379530800H,臺北市政府,臺北市公共運輸處,公車站,芝山抽水站-W-至誠路二段,,TAIFO,111,臺北市,士林區,111臺北市士林區至誠路二段114號前候車亭,121.5272060,25.1012990,Taipei City Government,"Public Transportation Office, Taipei City Government",Bus Station,"Zhishan Pumping Sta.-W-Sec. 2, Zhicheng Rd.",Taipei City,Shilin District,"The bus station No.112, Sec. 2, Zhicheng Rd., Shilin Dist., Taipei City 111, Taiwan (R.O.C.)"
TPEE000243,379530800H,臺北市政府,臺北市公共運輸處,公車站,士林行政中心(基河)-N-基河路,,TAIFO,111,臺北市,士林區,111臺北市士林區基河路258號對面候車亭,121.5204563,25.0928878,Taipei City Government,"Public Transportation Office, Taipei City Government",Bus Station,Shilin Administration Center(Jihe)-N-Jihe Rd.,Taipei City,Shilin District,"The bus station on the opposite side of No.258, Jihe Rd., Shilin Dist., Taipei City 111, Taiwan,  (R.O.C.)"
TPEE000244,379530800H,臺北市政府,臺北市公共運輸處,公車站,前港公園-S-華齡街,,TAIFO,111,臺北市,士林區,111臺北市士林區華齡街166號候車亭,121.5195501,25.0866304,Taipei City Government,"Public Transportation Office, Taipei City Government",Bus Station,Qiangang Park-S-Hualing St.,Taipei City,Shilin District,"The bus station No.166, Hualing St., Shilin Dist., Taipei City 111, Taiwan (R.O.C.)"
TPEE000245,379530800H,臺北市政府,臺北市公共運輸處,公車站,臨江園-N-延平北路七段,,TAIFO,111,臺北市,士林區,111臺北市士林區延平北路七段224號旁候車亭,121.4885977,25.1022667,Taipei City Government,"Public Transportation Office, Taipei City Government",Bus Station,"Linjiangyuan-N-Sec. 7, Yanping N. Rd.",Taipei City,Shilin District,"The bus station near No.224, Sec. 7, Yanping N. Rd., Shilin Dist., Taipei City 111, Taiwan,  (R.O.C.)"
TPEE000246,379530800H,臺北市政府,臺北市公共運輸處,公車站,大經橋-至善路二段,,TAIFO,111,臺北市,士林區,111臺北市士林區至善路二段449號候車亭,121.5572826,25.1092461,Taipei City Government,"Public Transportation Office, Taipei City Government",Bus Station,"Dajing Bridge-Sec. 2, Zhishan Rd.",Taipei City,Shilin District,"The bus station No.449, Sec. 2, Zhishan Rd., Shilin Dist., Taipei City 111, Taiwan, R.O.C."
TPEE000247,379530800H,臺北市政府,臺北市公共運輸處,公車站,大安國宅-N-建國南路二段,,TAIFO,106,臺北市,大安區,106臺北市大安區建國南路二段117號對面候車亭,121.5380700,25.0296950,Taipei City Government,"Public Transportation Office, Taipei City Government",Bus Station,"Daan Public Housing-N-Sec. 2, Jianguo S. Rd.",Taipei City,Da’an District,"The bus station on the opposite side of No. 117, Sec. 2, Jianguo S. Rd., Da’an Dist., Taipei City 106 , Taiwan (R.O.C.)"
TPEE000248,379530800H,臺北市政府,臺北市公共運輸處,公車站,中影文化城-至善路二段,,TAIFO,111,臺北市,士林區,111臺北市士林區至善路二段34號旁候車亭,121.5446227,25.0971186,Taipei City Government,"Public Transportation Office, Taipei City Government",Bus Station,"CMPCMovieCity-Sec. 2, Zhishan Rd.",Taipei City,Shilin District,"The bus station front of No.34, Sec. 2, Zhishan Rd., Shilin Dist., Taipei City 111, Taiwan (R.O.C.)"
TPEE000249,379530800H,臺北市政府,臺北市公共運輸處,公車站,外雙溪(至善)-至善路二段,,TAIFO,111,臺北市,士林區,111臺北市士林區至善路二段114號候車亭,121.5471340,25.0982220,Taipei City Government,"Public Transportation Office, Taipei City Government",Bus Station,"Waishuangxi(Zhishan)-Sec. 2, Zhishan Rd.",Taipei City,Shilin District,"The bus station No.114, Sec. 2, Zhishan Rd., Shilin Dist., Taipei City 111, Taiwan, R.O.C."
TPEE000250,379530800H,臺北市政府,臺北市公共運輸處,公車站,大度立德路口-W-立德路,,TAIFO,112,臺北市,北投區,112臺北市北投區大度路三段185號前候車亭,121.4704385,25.1227480,Taipei City Government,"Public Transportation Office, Taipei City Government",Bus Station,Dadu & Lide Intersection-W-Lide Rd.,Taipei City,Beitou District,"The bus station front of No. 185, Sec. 3, Dadu Rd., Beitou Dist., Taipei City 112 , Taiwan (R.O.C.)"
TPEE000251,379530800H,臺北市政府,臺北市公共運輸處,公車站,忠義街-忠義街,,TAIFO,111,臺北市,士林區,111臺北市士林區忠義街134號旁候車亭,121.5327254,25.1081791,Taipei City Government,"Public Transportation Office, Taipei City Government",Bus Station,Zhongyi St.-Zhongyi St.,Taipei City,Shilin District,"The bus station near No.134, Zhongyi St., Shilin Dist., Taipei City 111, Taiwan (R.O.C.)"
TPEE000252,379530800H,臺北市政府,臺北市公共運輸處,公車站,東山路-東山路,,TAIFO,111,臺北市,士林區,111臺北市士林區東山路27之1號斜旁候車亭,121.5390420,25.1152948,Taipei City Government,"Public Transportation Office, Taipei City Government",Bus Station,Terminal Stop DongShan Rd.-Dongshan Rd.,Taipei City,Shilin District,"The bus station on the opposite side of No.27, Dongshan Rd., Shilin Dist., Taipei City 111, Taiwan (R.O.C.)"
TPEE000253,379530800H,臺北市政府,臺北市公共運輸處,公車站,重陽橋-中正路,,TAIFO,111,臺北市,士林區,111臺北市士林區中正路629號前方候車亭,121.5085136,25.0862362,Taipei City Government,"Public Transportation Office, Taipei City Government",Bus Station,Chongyang Bridge-Zhongzheng Rd.,Taipei City,Shilin District,"The bus station front of No.629, Zhongzheng Rd., Shilin Dist., Taipei City 111, Taiwan (R.O.C.)"
TPEE000254,379530800H,臺北市政府,臺北市公共運輸處,公車站,梅林新村-至善路一段,,TAIFO,111,臺北市,士林區,111臺北市士林區至善路一段138巷3弄1號對面候車亭,121.5401280,25.0975273,Taipei City Government,"Public Transportation Office, Taipei City Government",Bus Station,"MeilinNewVillage-Sec. 1, Zhishan Rd.",Taipei City,Shilin District,"The bus station on the opposite side of No.1, Aly. 3, Ln.138, Sec. 1, Zhishan Rd., Shilin Dist., Taipei City 111, Taiwan (R.O.C.)"
TPEE000255,379530800H,臺北市政府,臺北市公共運輸處,公車站,職能發展學院一-士東路,,TAIFO,111,臺北市,士林區,111臺北市士林區士東路316號前方候車亭,121.5382867,25.1137663,Taipei City Government,"Public Transportation Office, Taipei City Government",Bus Station,Taipei City Vocational Development Institute 1-Shidong Rd.,Taipei City,Shilin District,"The bus station front of No.316, Shidong Rd., Shilin Dist., Taipei City 111, Taiwan, R.O.C."
TPEE000257,379530800H,臺北市政府,臺北市公共運輸處,公車站,外雙溪(故宮)-S-故宮路,,TAIFO,111,臺北市,士林區,111臺北市士林區故宮路18號旁候車亭,121.5468021,25.0973381,Taipei City Government,"Public Transportation Office, Taipei City Government",Bus Station,Waishuangxi(Gugong)-S-Gugong Rd.,Taipei City,Shilin District,"The bus station near No.18, Gugong Rd., Shilin Dist., Taipei City 111, Taiwan, R.O.C."
TPEE000258,379530800H,臺北市政府,臺北市公共運輸處,公車站,永倫里(社中)-E-社中街,,TAIFO,111,臺北市,士林區,111臺北市士林區社中街436號對面候車亭,121.502365,25.091564,Taipei City Government,"Public Transportation Office, Taipei City Government",Bus Station,Yonglun Li-E-Shezhong St.,Taipei City,Shilin District,"The bus station on the opposite side of No. 436, Shezhong St., Shilin Dist., Taipei City 111 , Taiwan (R.O.C.)"
TPEE000259,379530800H,臺北市政府,臺北市公共運輸處,公車站,故宮路口-W1-至善路二段,,TAIFO,111,臺北市,士林區,111臺北市士林區至善路二段96號對面候車亭,121.5459970,25.0981000,Taipei City Government,"Public Transportation Office, Taipei City Government",Bus Station,"GugongRd.Entrance-W1-Sec. 2, Zhishan Rd.",Taipei City,Shilin District,"The bus station on the opposite side of No.96, Sec. 2, Zhishan Rd., Shilin Dist., Taipei City 111, Taiwan (R.O.C.)"
TPEE000261,379530800H,臺北市政府,臺北市公共運輸處,公車站,大崙尾山步道口-N-中社路二段,,TAIFO,111,臺北市,士林區,111臺北市士林區中社路二段150號對面東北側候車,121.5678000,25.1060900,Taipei City Government,"Public Transportation Office, Taipei City Government",Bus Station,"Mt. Dalunwei Trail Entrance-N-Sec. 2, Zhongshe Rd.",Taipei City,Shilin District,"The bus station on the opposite and Northeast side of No.150, Sec. 2, Zhongshe Rd., Shilin Dist., Taipei City 111, Taiwan,  (R.O.C.)"
TPEE000262,379530800H,臺北市政府,臺北市公共運輸處,公車站,山仔后-S-菁山路,,TAIFO,111,臺北市,士林區,111臺北市士林區菁山路8號對面候車亭,121.5468130,25.1380440,Taipei City Government,"Public Transportation Office, Taipei City Government",Bus Station,Shanzaihou-S-Jingshan Rd.,Taipei City,Shilin District,"The bus station on the opposite side of No.8, Jingshan Rd., Shilin Dist., Taipei City 111, Taiwan (R.O.C.)"
TPEE000263,379530800H,臺北市政府,臺北市公共運輸處,公車站,中央電台-W1-北安路,,TAIFO,104,臺北市,中山區,104臺北市中山區北安路與北安路87巷口西北側候車亭,121.5300332,25.0780748,Taipei City Government,"Public Transportation Office, Taipei City Government",Bus Station,Radio Taiwan International-W1-Bei’an Rd.,Taipei City,Zhongshan District,"The bus station northwest side of Bei’an Rd. and Ln.87, Bei’an Rd., Shilin Dist., Taipei City 111, Taiwan,  (R.O.C.)"
TPEE000264,379530800H,臺北市政府,臺北市公共運輸處,公車站,明德新村-S-仰德大道三段,,TAIFO,111,臺北市,士林區,111臺北市士林區仰德大道三段86號對面候車亭,121.5529320,25.1199160,Taipei City Government,"Public Transportation Office, Taipei City Government",Bus Station,"Mingde New Village-S-Sec. 3, Yangde Blvd.",Taipei City,Shilin District,"The bus station on the opposite side of No. 86, Sec. 3, Yangde Blvd., Shilin Dist., Taipei City 111 , Taiwan (R.O.C.)"
TPEE000265,379530800H,臺北市政府,臺北市公共運輸處,公車站,天母圓環-E-中山北路七段,,TAIFO,111,臺北市,士林區,111臺北市士林區中山北路七段191巷77號前方候車亭,121.5323560,25.1250320,Taipei City Government,"Public Transportation Office, Taipei City Government",Bus Station,"Tianmu Circle-E-Sec. 7, Zhongshan N. Rd.",Taipei City,Shilin District,"The bus station front of No. 77, Ln. 191, Sec. 7, Zhongshan N. Rd., Shilin Dist., Taipei City 111 , Taiwan (R.O.C.)"
TPEE000266,379530800H,臺北市政府,臺北市公共運輸處,公車站,嶺腳-E-至善路三段,,TAIFO,111,臺北市,士林區,111臺北市士林區至善路三段31號對面候車亭,121.5634100,25.1123600,Taipei City Government,"Public Transportation Office, Taipei City Government",Bus Station,"Lingjiao-E-Sec. 3, Zhishan Rd.",Taipei City,Shilin District,"The bus station on the opposite side of No.31, Sec. 3, Zhishan Rd., Shilin Dist., Taipei City 111, Taiwan,  (R.O.C.)"
TPEE000267,379530800H,臺北市政府,臺北市公共運輸處,公車站,格致國中-N-仰德大道四段,,TAIFO,111,臺北市,士林區,111臺北市士林區仰德大道四段75號對面候車亭,121.5468750,25.1313720,Taipei City Government,"Public Transportation Office, Taipei City Government",Bus Station,"Gerzhi High School-N-Sec. 4, Yangde Blvd.",Taipei City,Shilin District,"The bus station on the opposite side of No. 75, Sec. 4, Yangde Blvd., Shilin Dist., Taipei City?111?, Taiwan (R.O.C.)"
TPEE000268,379530800H,臺北市政府,臺北市公共運輸處,公車站,中央站-S-中社路一段,,TAIFO,111,臺北市,士林區,111臺北市士林區中社路一段80號對面西南側候車亭,121.5615100,25.1075700,Taipei City Government,"Public Transportation Office, Taipei City Government",Bus Station,"Zhongyang Rd.-S-Sec. 1, Zhongshe Rd.",Taipei City,Shilin District,"The bus station on the opposite and southwest side of No.80, Sec. 1, Zhongshe Rd., Shilin Dist., Taipei City 111, Taiwan,  (R.O.C.)"
TPEE000269,379530800H,臺北市政府,臺北市公共運輸處,公車站,五常國小-N-龍江路,,TAIFO,104,臺北市,中山區,104臺北市中山區龍江路367號對面候車亭,121.5409588,25.0640721,Taipei City Government,"Public Transportation Office, Taipei City Government",Bus Station,Wuchang Elementary School-N-Longjiang Rd.,Taipei City,Zhongshan District,"The bus station on the opposite side of No.367, Longjiang Rd., Zhongshan Dist., Taipei City 104, Taiwan (R.O.C.)"
TPEE000270,379530800H,臺北市政府,臺北市公共運輸處,公車站,捷運北門站-N-塔城,,TAIFO,103,臺北市,大同區,103臺北市大同區塔城街7號旁候車亭,121.5105707,25.0506315,Taipei City Government,"Public Transportation Office, Taipei City Government",Bus Station,TCUH Zhongxin Branch-N-Tacheng St.,Taipei City,Datong District,"The bus station near No.7, Tacheng St., Datong Dist., Taipei City 103, Taiwan,  (R.O.C.)"
TPEE000272,379530800H,臺北市政府,臺北市公共運輸處,公車站,民族重慶路口-E-民族西路,,TAIFO,103,臺北市,大同區,103臺北市大同區民族西路208號候車亭,121.5142496,25.0685219,Taipei City Government,"Public Transportation Office, Taipei City Government",Bus Station,Minzu & Chongqing Intersection-E-Minzu W. Rd.,Taipei City,Datong District,"The bus station No.208, Minzu W. Rd., Datong Dist., Taipei City 103, Taiwan,  (R.O.C.)"
TPEE000273,379530800H,臺北市政府,臺北市公共運輸處,公車站,臺大綜合體育館-N1-新生南路三段,,TAIFO,106,臺北市,大安區,106臺北市大安區新生南路三段42號對面候車亭,121.5344217,25.0212774,Taipei City Government,"Public Transportation Office, Taipei City Government",Bus Station,"National Taiwan University Sports CenterN1-Section 3, Xinsheng South Road",Taipei City,Da’an District,"The bus station on the opposite side of No. 42, Sec. 3, Xinsheng S. Rd., Da’an Dist., Taipei City 106, Taiwan (R.O.C.)"
TPEE000274,379530800H,臺北市政府,臺北市公共運輸處,公車站,仁愛林森路口-S-林森南路,,TAIFO,100,臺北市,中正區,100臺北市中正區林森南路85號對面候車亭,121.5218015,25.0395455,Taipei City Government,"Public Transportation Office, Taipei City Government",Bus Station,Renai and Linsen Intersection-S-Linsen S. Rd.,Taipei City,Zhongzheng District,"The bus station on the opposite side of No. 85, Linsen S. Rd., Zhongzheng Dist., Taipei City?100?, Taiwan (R.O.C.)"
TPEE000275,379530800H,臺北市政府,臺北市公共運輸處,公車站,自來水處(辛亥)-S-辛亥路三段,,TAIFO,106,臺北市,大安區,106臺北市大安區辛亥路三段200號旁候車亭,121.5478890,25.0175430,Taipei City Government,"Public Transportation Office, Taipei City Government",Bus Station,"Taipei Water Department(Xinhai )-S-Sec. 3, Xinhai Rd.",Taipei City,Da’an District,"The bus station next to No. 200, Sec. 3, Xinhai Rd., Da’an Dist., Taipei City?106?, Taiwan (R.O.C.)"
TPEE000276,379530800H,臺北市政府,臺北市公共運輸處,公車站,自來水事業處-S-長興街,,TAIFO,106,臺北市,大安區,106臺北市大安區長興街131號對面候車亭,121.5475705,25.0153330,Taipei City Government,"Public Transportation Office, Taipei City Government",Bus Station,Water Department-S-Changxing Street,Taipei City,Da’an District,"The bus station on the opposite side of No. 131, Changxing St., Da’an Dist., Taipei City 106, Taiwan (R.O.C.)"
TPEE000277,379530800H,臺北市政府,臺北市公共運輸處,公車站,大我新舍-N-臥龍街,,TAIFO,106,臺北市,大安區,106臺北市大安區和平東路三段590號對面候車亭,121.5623065,25.0143066,Taipei City Government,"Public Transportation Office, Taipei City Government",Bus Station,Dawoxinshe-N-Wolong St.,Taipei City,Da’an District,"The bus station front of No.399, Wolong St., Da’an Dist., Taipei City 106, Taiwan (R.O.C.)"
TPEE000278,379530800H,臺北市政府,臺北市公共運輸處,公車站,內湖運動公園-N-舊宗路二段,,TAIFO,114,臺北市,內湖區,114臺北市內湖區舊宗路二段11號旁候車亭,121.5747761,25.0668658,Taipei City Government,"Public Transportation Office, Taipei City Government",Bus Station,Neihu Sports Park-N-Second Section of Jiuzong Road,Taipei City,Neihu District,"The bus station near No. 11, Sec. 2, Jiuzong Rd., Neihu Dist., Taipei City 114 , Taiwan (R.O.C.)"
TPEE000279,379530800H,臺北市政府,臺北市公共運輸處,公車站,臺北教育大學-S-復興南路二段,,TAIFO,106,臺北市,大安區,106臺北市大安區復興南路二段280號旁候車亭,121.5433409,25.0244328,Taipei City Government,"Public Transportation Office, Taipei City Government",Bus Station,Taipei University of Education-S-Fuxing South Road Section 2,Taipei City,Da’an District,"The bus station near No. 280, Sec. 2, Fuxing S. Rd., Da’an Dist., Taipei City106, Taiwan (R.O.C.)"
TPEE000280,379530800H,臺北市政府,臺北市公共運輸處,公車站,興安華城-S-復興北路,,TAIFO,106,臺北市,大安區,106臺北市大安區復興北路226號旁候車亭,121.5440635,25.0569439,Taipei City Government,"Public Transportation Office, Taipei City Government",Bus Station,Xingan Huacheng-S-Fuxing N. Rd.,Taipei City,Da’an District,"The bus station No.226, Fuxing N. Rd., Da’an Dist., Taipei City 106, TTaiwan (R.O.C.)"
