統一編號,商業名稱,商業地址,設立日期,Longitude,Latitude,縣市,行政區,歇業日期
00549670,解手癢夾娃娃機店,臺北市松山區饒河街211號,1140401.0,121.576412,25.050895,臺北市,松山區,
00549685,樂福滿生活商行,臺北市信義區松隆路3號5樓,1140401.0,121.566447,25.043496,臺北市,信義區,
00549778,神奇映像娛樂工作室,臺北市大安區大安路1段224巷11號,1140401.0,121.545368,25.034013,臺北市,大安區,
00549881,小日子花店,臺北市文山區指南路3段52號3樓之1,1140401.0,121.580716,24.981874,臺北市,文山區,
00549897,勝和百貨商行,臺北市信義區忠孝東路五段1之2號5樓,1140401.0,121.564964,25.041298,臺北市,信義區,
00549904,宏陽商行,臺北市松山區新東街27號,1140401.0,121.565843,25.058848,臺北市,松山區,
00549910,上禾髮藝,臺北市萬華區內江街55巷20號1樓,1140401.0,121.505251,25.042493,臺北市,萬華區,
00549926,鈞盞水電工程,臺北市信義區國業里松德路65號11樓之2,1140401.0,121.576649,25.038527,臺北市,信義區,
00549931,食旅文化工作室,臺北市大安區復興南路1段243號11樓之1,1140401.0,121.543885,25.037208,臺北市,大安區,
00549947,家禾小吃店,臺北市大安區通化街45號,1140401.0,121.554327,25.030771,臺北市,大安區,
00549952,森滙商行,臺北市南港區玉成街66之8號地下一層,1140401.0,121.581809,25.046886,臺北市,南港區,
00549968,育宏雞排店,臺北市中山區遼寧街37號,1140401.0,121.542231,25.048575,臺北市,中山區,
00549974,調性音樂工作室,臺北市中山區復興北路48號7樓,1140401.0,121.54376,25.049537,臺北市,中山區,
00549989,米施商行,臺北市南港區經貿一路170號2樓之7,1140401.0,121.618407,25.057825,臺北市,南港區,
00549995,安軒企業社,臺北市信義區基隆路1段143號11樓之4,1140401.0,121.565797,25.042902,臺北市,信義區,
00550009,圓周企業社,臺北市信義區基隆路1段143號11樓之4,1140401.0,121.565797,25.042902,臺北市,信義區,
00550015,雅瑟商行,臺北市信義區基隆路1段143號11樓之4,1140401.0,121.565797,25.042902,臺北市,信義區,
00550021,楓潤企業社,臺北市信義區基隆路1段143號11樓之4,1140401.0,121.565797,25.042902,臺北市,信義區,
00550036,獻忠家禽行,臺北市松山區民族東路410巷16號,1140401.0,121.538242,25.066361,臺北市,松山區,
00550042,永春虎林蔬食,臺北市信義區虎林街119巷21號1樓,1140401.0,121.577501,25.042157,臺北市,信義區,
00550057,姆姆運動管理企業社,臺北市大同區承德路一段66號3樓,1140401.0,121.517149,25.052049,臺北市,大同區,
00549502,月海計劃工作室,臺北市信義區忠孝東路5段790巷70弄12號,1140402.0,121.58309,25.040253,臺北市,信義區,
00550063,綠色山脈生技髮妝用品社,臺北市北投區立農街1段279巷2弄1號1樓,1140402.0,121.506175,25.119717,臺北市,北投區,
00550079,泰初安安商行,臺北市大安區復興南路1段122巷6號1樓,1140402.0,121.542984,25.043524,臺北市,大安區,
00550084,芊瑋工程行,臺北市大安區忠孝東路4段148號7樓,1140402.0,121.54991,25.041298,臺北市,大安區,
00550090,炸青家商行,臺北市內湖區內湖路1段737巷76號1樓,1140402.0,121.579123,25.081434,臺北市,內湖區,
00550107,壹森壹史商號,臺北市松山區八德路4段453巷14號1樓,1140402.0,121.570299,25.050467,臺北市,松山區,
00550113,日初烘焙工作室,臺北市士林區士東路286巷3弄4號1樓,1140402.0,121.53764,25.112801,臺北市,士林區,
00550129,神助企業社,臺北市中山區復興北路164號4樓,1140402.0,121.54386,25.053471,臺北市,中山區,
00550134,品盛冷氣行,臺北市內湖區新明路460巷17弄3號2樓,1140402.0,121.578607,25.05469,臺北市,內湖區,
00550140,榮朔企業社,臺北市松山區新東街30巷42之1號1樓,1140402.0,121.567676,25.059698,臺北市,松山區,
00550155,信秈珈琲商行,臺北市大安區和平東路3段228巷23號1樓,1140402.0,121.554098,25.021353,臺北市,大安區,
00550161,半隱半藏工作室,臺北市大同區南京西路57號5樓之9,1140402.0,121.519354,25.053083,臺北市,大同區,
00550177,金彩真日本料理店,臺北市松山區南京東路5段4號,1140402.0,121.558218,25.051344,臺北市,松山區,
00550182,岳谷和屋,臺北市中山區吉林路26巷26號1樓,1140402.0,121.529172,25.051411,臺北市,中山區,
00550198,阿財修理皮鞋店,臺北市萬華區內江街9號公有西門市場55號攤位,1140402.0,121.506684,25.041594,臺北市,萬華區,
00550205,尚相工作室,臺北市大安區和平東路3段276號,1140402.0,121.555837,25.021025,臺北市,大安區,
00550211,開心喝企業社,臺北市中正區羅斯福路3段282號,1140402.0,121.532124,25.016484,臺北市,中正區,
00550227,金煥工藝坊,臺北市中正區重慶南路3段128之1號1樓,1140402.0,121.516565,25.024379,臺北市,中正區,
00550232,彭鑫電機工程行,臺北市大安區復興南路1段352號2樓之2,1140402.0,121.543392,25.03562,臺北市,大安區,
00550248,俐妃食坊,臺北市大安區正聲里光復南路346 巷80 號1樓,1140402.0,121.55548,25.038494,臺北市,大安區,
00550520,比毛毛企業社,臺北市南港區三重路19之10號2樓,1140402.0,121.613519,25.058139,臺北市,南港區,
00577611,泰姆咖塔商行,臺北市萬華區開封街2段66之2號1樓,1140402.0,121.506164,25.046619,臺北市,萬華區,
00581220,君和設計工作室,臺北市大安區光復南路612號7樓,1140402.0,121.557294,25.032382,臺北市,大安區,
00581278,理饗廚房工作室,臺北市中山區民權東路2段92巷2弄1號1樓,1140402.0,121.531668,25.061702,臺北市,中山區,
00581283,李鑫茶行,臺北市中山區民權東路2段92巷2弄1號1樓,1140402.0,121.531668,25.061702,臺北市,中山區,
00527486,碧蓮美式炸雞店,臺北市南港區中坡北路30巷1號1樓,1140407.0,121.580877,25.045802,臺北市,南港區,
00550253,安閔秀商行,臺北市松山區新東街38號1樓,1140407.0,121.565585,25.06091,臺北市,松山區,
00550269,中山漁店,臺北市中山區長安西路3號1樓83號攤位,1140407.0,121.521201,25.050163,臺北市,中山區,
00550275,築建工程行,臺北市萬華區青年路168巷42號5樓之1,1140407.0,121.501641,25.019902,臺北市,萬華區,
00550280,牛殿下秘傳金湯牛肉麵館,臺北市大安區忠孝東路4段97號地下之20,1140407.0,121.547955,25.041754,臺北市,大安區,
00550296,園藝先生植務社,臺北市內湖區內湖路2段355巷7弄7號4樓,1140407.0,121.592304,25.084159,臺北市,內湖區,
00550303,巷弄四十一紅茶店,臺北市松山區南京東路5段59巷29弄41號1樓,1140407.0,121.560619,25.053093,臺北市,松山區,
00550319,小花序章企業社,臺北市大安區辛亥路二段43號,1140407.0,121.536398,25.022821,臺北市,大安區,
00550325,原聚企業社,臺北市大安區敦化南路1段177巷10號,1140407.0,121.549734,25.042957,臺北市,大安區,
00550330,錦衣玉食商行,臺北市中正區羅斯福路1段61號11樓,1140407.0,121.519341,25.031616,臺北市,中正區,
00550346,永森聚落企業社,臺北市中山區民生東路2段115巷16號1樓,1140407.0,121.531592,25.058736,臺北市,中山區,
00550351,樂玩禮品店,臺北市萬華區武昌街2段17號1樓,1140407.0,121.508132,25.044525,臺北市,萬華區,
00550367,銀鹽沖印二階社,臺北市大同區南京西路25巷6號2樓,1140407.0,121.520294,25.054114,臺北市,大同區,
00550373,鑫億交通器材行,臺北市大同區錦西街65巷42號1樓,1140407.0,121.514846,25.060739,臺北市,大同區,
00550388,睫毛上癮工作室,臺北市文山區景文街107號4樓,1140407.0,121.541282,24.990675,臺北市,文山區,
00550394,稟昱實業社,臺北市信義區忠孝東路五段1之8號2樓,1140407.0,121.565175,25.041293,臺北市,信義區,
00550401,留百味企業社,臺北市信義區光復南路473巷29號,1140407.0,121.558948,25.033712,臺北市,信義區,
00550417,婕宸企業社,臺北市中正區汀州路2段188號,1140407.0,121.523079,25.022922,臺北市,中正區,
00550423,禾曉悅餐坊,臺北市大安區復興南路1段107巷40號,1140407.0,121.545976,25.043489,臺北市,大安區,
00550438,阿掌工作室,臺北市大安區建安里忠孝東路4段169號6樓之1,1140407.0,121.550421,25.041705,臺北市,大安區,
00550459,金好越南麵包,臺北市內湖區康樂街74巷2號,1140407.0,121.618703,25.06979,臺北市,內湖區,
00550465,立益食品行,臺北市中山區民生東路2段115巷1號1樓,1140407.0,121.531692,25.058174,臺北市,中山區,
00550471,金寶輕食館,臺北市信義區中興里信義路四段450巷3號,1140407.0,121.55853,25.032351,臺北市,信義區,
00550486,好樣燒臘,臺北市內湖區江南街116巷1號1樓,1140407.0,121.576098,25.07665,臺北市,內湖區,
00550492,豐興商行,臺北市大同區歸綏街97巷20號,1140407.0,121.515821,25.059435,臺北市,大同區,
00550508,宜群健康整復工作室,臺北市大安區敦化南路1段344號7樓,1140407.0,121.548446,25.034738,臺北市,大安區,
00550514,實一室內裝修設計,臺北市中山區北安路633號1樓,1140408.0,121.548991,25.083551,臺北市,中山區,
00550535,老芋食品行,臺北市大安區安和路2段171巷19號1樓,1140408.0,121.550717,25.028153,臺北市,大安區,
00550541,阿娥食品行,臺北市大同區延平北路3段61之3號1樓,1140408.0,121.511142,25.065759,臺北市,大同區,
00550556,老弄堂,臺北市信義區莊敬路391巷10號1樓,1140408.0,121.565822,25.028099,臺北市,信義區,
00550562,苒物工作室,臺北市松山區復建里八德路3段218號7樓,1140408.0,121.556907,25.047992,臺北市,松山區,
00550578,動感光波工作室,臺北市大安區復興南路1段352號2樓之2,1140408.0,121.543392,25.03562,臺北市,大安區,
00550583,水果大王水果專賣店,臺北市內湖區內湖路1段737巷51弄1之1號1樓,1140408.0,121.579171,25.08033,臺北市,內湖區,
00550599,銓吉小吃店,臺北市士林區小東街22號1樓,1140408.0,121.526234,25.089113,臺北市,士林區,
00550606,室相行,臺北市中山區長安東路2段169號4樓,1140408.0,121.54073,25.048421,臺北市,中山區,
00550612,利沅企業社,臺北市信義區松德路161號13樓之2,1140408.0,121.574837,25.036394,臺北市,信義區,
00550633,葉子工作室,臺北市大安區敦化南路1段187巷75號1樓,1140408.0,121.552569,25.042625,臺北市,大安區,
00550649,真正宗雲泰料理餐廳,臺北市中正區四平街99號1樓,1140408.0,121.535452,25.053688,臺北市,中正區,
00550654,蘇加宣影像工作室,臺北市南港區忠孝東路6段212巷3弄1號3樓,1140408.0,121.587607,25.048151,臺北市,南港區,
00550660,祐丞企業社,臺北市松山區南京東路5段250巷36弄12號,1140408.0,121.566603,25.049524,臺北市,松山區,
00550676,鈁袨美妍室,臺北市中山區民權東路2段92巷1弄3號1樓,1140408.0,121.531859,25.061617,臺北市,中山區,
00583634,南滷商行,臺北市松山區南京東路4段133巷9弄1號1樓,1140408.0,121.555254,25.053056,臺北市,松山區,
00550681,來抓我企業社,臺北市北投區崇仁路1段63號1樓,1140409.0,121.501498,25.126778,臺北市,北投區,
00550697,蔡承顥個人小貨車搬家企業社,臺北市松山區南京東路5段389巷11弄10號,1140409.0,121.569578,25.052275,臺北市,松山區,
00550704,定美克昕造型工作室,臺北市信義區信義路4段415號14樓之1,1140409.0,121.559235,25.033304,臺北市,信義區,
00550710,叩叩甜甜點工作室,臺北市大安區通化街39巷3號1樓,1140409.0,121.55452,25.030963,臺北市,大安區,
00550726,翔敏越式洗髮工作室,臺北市南港區八德路4段838號,1140409.0,121.582221,25.051248,臺北市,南港區,
00550731,利秘雅國際貿易企業社,臺北市松山區富錦街527號,1140409.0,121.565191,25.061205,臺北市,松山區,
00550747,心鮮嚴選果物行,臺北市中山區新生北路2段101巷17號,1140409.0,121.52853,25.057468,臺北市,中山區,
00550752,徐如意工作室,臺北市大安區仁愛路3段26號5樓,1140409.0,121.535746,25.037648,臺北市,大安區,
00550768,紅樓手機維修站,臺北市萬華區漢口街2段90巷2號1樓,1140409.0,121.504247,25.046047,臺北市,萬華區,
00550774,泱白設計室內裝修工作室,臺北市中正區黎明里南陽街24號2樓,1140409.0,121.516026,25.044362,臺北市,中正區,
00550789,翡閣麗珠寶社,臺北市中正區許昌街42號8樓,1140409.0,121.51546,25.045451,臺北市,中正區,
00550795,洛梗工作室,臺北市松山區基隆路1段8號13樓,1140409.0,121.569933,25.050764,臺北市,松山區,
00550802,麤心選物販賣商行,臺北市萬華區中華路1段114巷4之4號,1140409.0,121.507955,25.043842,臺北市,萬華區,
00550818,林福吉麵包店,臺北市內湖區五分街3號1樓,1140409.0,121.612151,25.067767,臺北市,內湖區,
00550824,知援玩學所,臺北市士林區忠誠路1段33之3號4樓,1140409.0,121.527286,25.104043,臺北市,士林區,
00550839,蒔美舒壓美容館,臺北市中山區吉林路206號,1140409.0,121.530089,25.058617,臺北市,中山區,
00550845,知芯小吃店,臺北市文山區指南路2段59號1樓,1140409.0,121.574568,24.987971,臺北市,文山區,
00550850,璟禾音樂餐坊,臺北市中山區南京東路1段132巷28之3號地下二層,1140409.0,121.526712,25.050198,臺北市,中山區,
00550866,潮爺爺小吃店,臺北市內湖區瑞光路293號1樓,1140409.0,121.57634,25.075651,臺北市,內湖區,
00550872,津仙排骨飯館,臺北市萬華區西園路1段314之1號1樓,1140409.0,121.497884,25.033374,臺北市,萬華區,
00550887,奧爾國際商號,臺北市大安區通化街19號1樓,1140409.0,121.55435,25.031573,臺北市,大安區,
00550893,嘉隆軒餐飲企業社,臺北市松山區民生東路4段55巷2號1樓,1140409.0,121.550397,25.058122,臺北市,松山區,
00550900,大馬士革廚房,臺北市南港區成福路180巷3號,1140409.0,121.587683,25.041369,臺北市,南港區,
00550916,艾蒔光健康舒壓館,臺北市中山區南京東路3段210號9樓,1140409.0,121.543341,25.05167,臺北市,中山區,
00550922,宏謙工程行,臺北市信義區基隆路1段149號3樓之7,1140410.0,121.56555,25.04256,臺北市,信義區,
00550937,比利烘焙坊,臺北市大安區羅斯福路2段95號18樓之3,1140410.0,121.524158,25.025095,臺北市,大安區,
00550943,爾革企業社,臺北市萬華區西寧南路72之1號10樓之3,1140410.0,121.505966,25.043216,臺北市,萬華區,
00550958,興美小館,臺北市大安區四維路14巷3號,1140410.0,121.547872,25.036875,臺北市,大安區,
00550964,古向以町商行,臺北市中正區延平南路175號1樓,1140410.0,121.507641,25.034589,臺北市,中正區,
00550970,原點藝能國際企業社,臺北市信義區松隆路78號,1140410.0,121.569087,25.044439,臺北市,信義區,
00550985,宏瑞機車材料行,臺北市松山區寧安街8號,1140410.0,121.554205,25.049081,臺北市,松山區,
00550991,初心企業社,臺北市松山區復興北路223號,1140410.0,121.544462,25.056823,臺北市,松山區,
00551008,威特安心實業坊,臺北市大安區仁愛路4段48巷30號1樓,1140410.0,121.546989,25.03628,臺北市,大安區,
00551014,晟饗企業社,臺北市中山區伊通街101之1號1樓,1140410.0,121.534916,25.053342,臺北市,中山區,
00551020,亞列爾商行,臺北市大安區辛亥路2段145號1樓,1140410.0,121.540018,25.021699,臺北市,大安區,
00551035,沃特企業社,臺北市中山區民族東路514號,1140410.0,121.542317,25.067713,臺北市,中山區,
00551041,渡渡映像工作室,臺北市內湖區新明路343號8樓,1140410.0,121.583617,25.056086,臺北市,內湖區,
00551056,美力工作室,臺北市大安區基隆路2段136號9樓,1140410.0,121.556652,25.028494,臺北市,大安區,
00551062,京辰商行,臺北市松山區南京東路4段133巷9弄1號1樓,1140410.0,121.555254,25.053056,臺北市,松山區,
00551078,丘丘麻糬商號,臺北市大安區新生南路3段56巷9號1樓,1140411.0,121.53361,25.020481,臺北市,大安區,
00551083,子翔映像製作工作室,臺北市中山區長安東路2段106號9樓之2,1140411.0,121.535165,25.048317,臺北市,中山區,
00551099,集美企業社,臺北市中山區長安東路2段171號9樓,1140411.0,121.541684,25.048401,臺北市,中山區,
00551106,惠楠榮餐飲號,臺北市中山區雙城街23之3號1樓,1140411.0,121.524371,25.066113,臺北市,中山區,
00551112,四月初療癒工作室,臺北市萬華區中華路1段106號8樓,1140411.0,121.508392,25.043975,臺北市,萬華區,
00551128,有米美學工作室,臺北市文山區景後街190號8樓,1140411.0,121.54174,24.990107,臺北市,文山區,
00551133,易成車行,臺北市大安區和平東路3段372號,1140411.0,121.557914,25.019078,臺北市,大安區,
00551149,加一工作室,臺北市信義區基隆路2段179號8樓之1,1140411.0,121.553646,25.024958,臺北市,信義區,
00551154,順捷塑膠地板企業社,臺北市士林區永平街19號1樓,1140411.0,121.505067,25.090135,臺北市,士林區,
00551160,正紅早午餐,臺北市松山區八德路4段837號1樓,1140411.0,121.579566,25.051552,臺北市,松山區,
00551176,佑順潔商行,臺北市士林區福華路122號1樓,1140411.0,121.522936,25.102609,臺北市,士林區,
00551197,隱私美髮沙龍,臺北市中山區林森北路576號1樓,1140411.0,121.525572,25.065097,臺北市,中山區,
00551204,綠韻服裝設計企業社,臺北市文山區興隆路2段249號1樓,1140411.0,121.551557,25.001992,臺北市,文山區,
00551181,美繪工作坊,臺北市松山區南京東路5段83號3樓,1140414.0,121.55992,25.051708,臺北市,松山區,
00551210,唯依閣工作室,臺北市文山區興隆路4段109巷92弄19號4樓,1140414.0,121.564083,24.986412,臺北市,文山區,
00551226,家飯製造所,臺北市大同區延平北路3段18巷42之1號4樓,1140414.0,121.509747,25.063845,臺北市,大同區,
00551247,阿財豬肉店,臺北市信義區福德街232巷16弄4號1樓,1140414.0,121.584502,25.03928,臺北市,信義區,
00551252,旵金日本料理,臺北市中山區長春路148號1樓,1140414.0,121.53175,25.054725,臺北市,中山區,
00551268,景豪小吃店,臺北市北投區致遠二路112號1樓,1140414.0,121.51288,25.117186,臺北市,北投區,
00551274,利曦光明茶飲企業社,臺北市北投區光明路200之8號,1140414.0,121.503673,25.135909,臺北市,北投區,
00551289,民生健康商行,臺北市中山區合江街102巷2號,1140414.0,121.53913,25.0587,臺北市,中山區,
00551295,禾全企業社,臺北市大安區復興南路1段222號9樓,1140414.0,121.543488,25.039237,臺北市,大安區,
00551302,一二零企業社,臺北市大同區甘谷街26號5樓,1140414.0,121.510876,25.052772,臺北市,大同區,
00551318,磊中惠溢店,臺北市中山區中山北路3段49之5號,1140414.0,121.522673,25.066898,臺北市,中山區,
00551324,駿程外牆修繕工程行,臺北市萬華區中華路1段106號8樓,1140414.0,121.508392,25.043975,臺北市,萬華區,
00551339,駿卡工作室,臺北市內湖區江南街10號1樓,1140414.0,121.578177,25.078091,臺北市,內湖區,
00551345,威禹企業社,臺北市中山區新生北路二段127巷18號1樓,1140414.0,121.52918,25.059721,臺北市,中山區,
00551350,杉葉音樂工作室,臺北市中正區和平西路3段78號,1140414.0,121.502551,25.035043,臺北市,中正區,
00551366,艾德雜貨精選商行,臺北市大同區承德路2段63巷4號1樓,1140414.0,121.518598,25.055546,臺北市,大同區,
00551372,食堡餐飲企業社,臺北市大安區忠孝東路3段54號2樓之1,1140414.0,121.535562,25.041727,臺北市,大安區,
00551387,迦納軒佛具行,臺北市南港區興南街60巷29號5樓,1140414.0,121.603742,25.055886,臺北市,南港區,
00581713,奇異果大安藥局,臺北市大安區大安路1段190號,1140414.0,121.545888,25.035726,臺北市,大安區,
00582229,琴琴美食早餐店,臺北市萬華區青年路166號1樓,1140414.0,121.502646,25.020914,臺北市,萬華區,
75983664,稻荷遊戲工作室,臺北市大安區和平東路1段74巷21號3樓,1140414.0,121.524328,25.026278,臺北市,大安區,
88119117,萬家會館,臺北市中正區延平南路61號3樓之4,1140414.0,121.510414,25.044657,臺北市,中正區,
88257434,喬媙服飾行,臺北市信義區永吉路443巷13弄22號,1140414.0,121.579271,25.046928,臺北市,信義區,
00551393,昌樹企業社,臺北市信義區基隆路1段97號4樓之1,1140415.0,121.567328,25.045548,臺北市,信義區,
00551400,庭忠工程行,臺北市士林區華齡街22巷12號2樓,1140415.0,121.520007,25.083188,臺北市,士林區,
00551416,巧兒工作室,臺北市中山區中山北路2段59巷9號2樓之5,1140415.0,121.523621,25.055907,臺北市,中山區,
00551422,繆思工作室,臺北市中山區林森北路119巷40號2樓,1140415.0,121.526613,25.050305,臺北市,中山區,
00551437,柯基愛健身工作室,臺北市中山區松江路123巷7之1號6樓,1140415.0,121.533938,25.052996,臺北市,中山區,
00551443,星運小問工作室,臺北市內湖區民權東路6段119號14樓之3,1140415.0,121.592474,25.069106,臺北市,內湖區,
00551458,菲髣髮型沙龍,臺北市大安區仁愛路3段123巷13弄3號,1140415.0,121.542418,25.03994,臺北市,大安區,
00551464,歐塔米企業社,臺北市松山區八德路3段155巷28號,1140415.0,121.555175,25.049578,臺北市,松山區,
00551470,艾爾特工作室,臺北市南港區中坡南路19號1樓,1140415.0,121.583033,25.0434,臺北市,南港區,
00551485,香天行銷,臺北市大安區德安里大安路1段191號6樓之1,1140415.0,121.546099,25.035768,臺北市,大安區,
00551491,韓舍企業社,臺北市中山區錦州街298號1樓,1140415.0,121.535959,25.06022,臺北市,中山區,
00551507,熠傑飲料店,臺北市大同區延平北路2段148號1樓,1140415.0,121.511439,25.0577,臺北市,大同區,
00551513,恆藝文創坊,臺北市松山區安平里南京東路5段389巷5弄13號3樓,1140415.0,121.569768,25.051952,臺北市,松山區,
00551529,界格服飾工作室,臺北市內湖區成功路5段49號11樓之3,1140415.0,121.606375,25.074435,臺北市,內湖區,
31825387,采町服飾行,臺北市信義區松山路119巷7號1樓,1140415.0,121.578759,25.047519,臺北市,信義區,
00530601,芳品食品行,臺北市松山區三民路113巷3號,1140416.0,121.563244,25.057929,臺北市,松山區,
00551534,花園鞋坊,臺北市內湖區內湖路1段737巷64號1樓,1140416.0,121.579061,25.080952,臺北市,內湖區,
00551540,素媽辣商店,臺北市松山區南京東路5段61之3號,1140416.0,121.55927,25.051807,臺北市,松山區,
00551555,日初飲料店,臺北市中山區農安街166巷1號,1140416.0,121.533935,25.064515,臺北市,中山區,
00551561,桃穗企業社,臺北市大安區信義路4段1號2樓,1140416.0,121.543915,25.033566,臺北市,大安區,
00551577,集佳工程行,臺北市松山區八德路4段245巷13弄4號1樓,1140416.0,121.564989,25.049287,臺北市,松山區,
00551582,精讚企業社,臺北市北投區中央南路1段192之1號1樓,1140416.0,121.501073,25.128665,臺北市,北投區,
00551598,饗稻餐飲坊,臺北市北投區石牌路一段166巷78號1樓,1140416.0,121.514751,25.112691,臺北市,北投區,
00551605,亮垣商行,臺北市松山區自強里健康路233號,1140416.0,121.562883,25.054319,臺北市,松山區,
00551611,艾歐斯企業社,臺北市中山區南京東路3段210號9樓,1140416.0,121.543341,25.05167,臺北市,中山區,
00551627,言午紅燒鴨肉麵,臺北市南港區新民街25巷2號1樓,1140416.0,121.613488,25.05592,臺北市,南港區,
00551632,饗食匯小館,臺北市松山區健康路66號1樓,1140416.0,121.55354,25.053293,臺北市,松山區,
00551648,沃卡寵物選品商行,臺北市中山區天津街37號3樓之4,1140416.0,121.522989,25.049779,臺北市,中山區,
00551653,銓一小吃店,臺北市中正區寧波西街61號1樓,1140416.0,121.517315,25.030667,臺北市,中正區,
00551669,瞪鞋映畫社,臺北市信義區景勤里信安街9巷6號2樓,1140416.0,121.558459,25.02811,臺北市,信義區,
00551675,瀧柒水族館,臺北市內湖區康樂街186巷33號地下之4,1140416.0,121.620476,25.076924,臺北市,內湖區,
00551680,嘉辰食坊,臺北市中山區大直街22號1樓,1140416.0,121.546324,25.081451,臺北市,中山區,
00551696,佐創企業社,臺北市中山區復興北路48號10樓,1140416.0,121.54376,25.049537,臺北市,中山區,
00551703,大地貿易企業,臺北市大同區西寧北路78之18號,1140416.0,121.508688,25.05443,臺北市,大同區,
00582179,福利舍商行,臺北市士林區天母東路50巷27號,1140416.0,121.533141,25.116781,臺北市,士林區,
00551719,映覺製所,臺北市中山區中庄里民生東路2段127巷6號2樓之3,1140417.0,121.532157,25.05825,臺北市,中山區,
00551725,九旭企業社,臺北市大安區敦化南路1段161巷40之1號1樓,1140417.0,121.551106,25.0434,臺北市,大安區,
00551730,泰馨舒壓養身坊,臺北市大安區復興南路2段111巷3弄6號1樓,1140417.0,121.543976,25.03036,臺北市,大安區,
00551751,滇豐食客美食館,臺北市萬華區成都路92號1樓及2樓,1140417.0,121.504515,25.043009,臺北市,萬華區,
00551767,全下策略顧問企業社,臺北市大安區建安里忠孝東路四段169號11樓之4,1140417.0,121.550421,25.041705,臺北市,大安區,
00551773,緣業商行,臺北市中正區羅斯福路3段316巷10號1樓,1140417.0,121.532413,25.015637,臺北市,中正區,
00551788,安伊設計顧問工作室,臺北市文山區木新路3段45巷7弄15號1樓,1140417.0,121.564901,24.98225,臺北市,文山區,
00551794,泰鬆小吃店,臺北市萬華區武昌街2段83之8號1樓,1140417.0,121.505126,25.045649,臺北市,萬華區,
00551801,溫米工作室,臺北市中山區撫順街39之2號1樓,1140417.0,121.519454,25.063457,臺北市,中山區,
00551817,泓威企業社,臺北市信義區信義路4段415號14樓之1,1140417.0,121.559235,25.033304,臺北市,信義區,
00551823,柴米小吃店,臺北市中正區林森南路61巷11之1號1樓,1140417.0,121.522668,25.039766,臺北市,中正區,
00551838,草山橘商行,臺北市大安區忠孝東路3段217巷6弄7號1樓,1140417.0,121.540124,25.043417,臺北市,大安區,
00551859,我愛夏天工作室,臺北市大同區承德路1段35號8樓之2,1140417.0,121.517315,25.051093,臺北市,大同區,
00551865,壹品商業,臺北市大同區永樂里甘谷街26號5樓,1140417.0,121.510876,25.052772,臺北市,大同區,
00551871,海羽實業,臺北市中山區龍江路397巷45號,1140417.0,121.543369,25.065615,臺北市,中山區,
00551886,艾迪運動工作室,臺北市大安區忠孝東路4段299號6樓,1140417.0,121.555336,25.041598,臺北市,大安區,
00551892,派奇亞工作室,臺北市中山區八德路2段68號1樓,1140417.0,121.53545,25.045382,臺北市,中山區,
00551909,人來了羊肉小吃店,臺北市中山區天祥路18號1樓,1140418.0,121.52096,25.061077,臺北市,中山區,
00551915,好肌會工作室,臺北市士林區德行東路109巷83弄9號1樓,1140418.0,121.528232,25.11043,臺北市,士林區,
00551921,歐曼億企業社,臺北市中正區懷寧街76號,1140418.0,121.513988,25.04314,臺北市,中正區,
00551936,昕妍映境企業社,臺北市大安區安居街108巷31號1樓,1140418.0,121.551776,25.019485,臺北市,大安區,
00551942,木子龍餐飲,臺北市松山區八德路4段251號1樓,1140418.0,121.564989,25.049029,臺北市,松山區,
00551957,金瑞堂運動彩券行,臺北市大安區通化街106號1樓,1140418.0,121.553937,25.029546,臺北市,大安區,
00551963,鼎昇工程行,臺北市士林區延平北路5段136巷27弄39號1樓,1140418.0,121.511093,25.083024,臺北市,士林區,
00551979,饗初食品行,臺北市士林區延平北路5段136巷27弄39號1樓,1140418.0,121.511093,25.083024,臺北市,士林區,
00551984,寧記企業社,臺北市士林區延平北路5段136巷27弄39號1樓,1140418.0,121.511093,25.083024,臺北市,士林區,
00551990,張記粉圓豆花冰店,臺北市士林區中正路340號1樓,1140418.0,121.522024,25.094605,臺北市,士林區,
00552007,木卯暉工作室,臺北市大同區南京西路57號5樓之11,1140418.0,121.519354,25.053083,臺北市,大同區,
00552013,琪期服飾行,臺北市信義區永吉路443巷3弄16號,1140418.0,121.578597,25.045923,臺北市,信義區,
00552029,好朋友友善蔬果,臺北市文山區興隆路2段97號1樓,1140418.0,121.547452,24.999739,臺北市,文山區,
00552034,金樽木華餐酒館,臺北市大安區新生南路2段30巷21號1樓,1140418.0,121.530931,25.03134,臺北市,大安區,
00552040,玉禾工程行,臺北市信義區忠孝東路5段1之2號5樓,1140418.0,121.564964,25.041298,臺北市,信義區,
00552055,伊順企業社,臺北市大同區延平北路2段202號17樓之2,1140418.0,121.511296,25.059035,臺北市,大同區,
00552061,知苑世界風情精品商行,臺北市松山區八德路3段199巷25號,1140418.0,121.556382,25.049389,臺北市,松山區,
00552077,燊森源工程行,臺北市中山區南京東路3段189號10樓,1140418.0,121.542231,25.052087,臺北市,中山區,
00552082,創意感性力商號,臺北市萬華區中華路1段106號8樓,1140418.0,121.508392,25.043975,臺北市,萬華區,
88166482,蔡家小吃,臺北市北投區中和街474巷20號2樓,1140418.0,121.495281,25.146405,臺北市,北投區,
93217813,楊碧珠小吃店,臺北市中山區建國北路三段22巷15號3樓,1140418.0,121.535675,25.063852,臺北市,中山區,
00552098,萬味商行,臺北市萬華區三水街56號,1140421.0,121.502521,25.035993,臺北市,萬華區,
00552105,桑斗朝食屋,臺北市中山區中山北路2段27巷13號,1140421.0,121.524341,25.053294,臺北市,中山區,
00552111,煦禾創意工作室,臺北市文山區汀州路4段130號1樓,1140421.0,121.53585,25.00549,臺北市,文山區,
00552127,築心無餘整合顧問企業社,臺北市信義區忠孝東路5段1之1號13樓,1140421.0,121.564864,25.041412,臺北市,信義區,
00552132,皇心商行,臺北市內湖區康寧路3段189巷80弄12號3樓,1140421.0,121.612915,25.072109,臺北市,內湖區,
00552148,語向工作室,臺北市大安區金山南路2段2號8樓,1140421.0,121.527058,25.033822,臺北市,大安區,
00552153,陋巷咖啡廳,臺北市南港區忠孝東路7段487巷5號,1140421.0,121.611543,25.05309,臺北市,南港區,
00552169,德蓉日酒咖啡館,臺北市中山區新生北路2段60之1號,1140421.0,121.527202,25.055783,臺北市,中山區,
00552175,震嘉工程行,臺北市文山區秀明路1段19巷3弄3號,1140421.0,121.563489,24.989567,臺北市,文山區,
00552180,泰樂文傳工作室,臺北市信義區信義路4段415號14樓之1,1140421.0,121.559235,25.033304,臺北市,信義區,
00552196,拉扎美髮沙龍,臺北市中山區民權東路3段75巷2弄2號1樓,1140421.0,121.543584,25.062833,臺北市,中山區,
00552203,探索廚房,臺北市南港區忠孝東路7段617號3樓,1140421.0,121.615416,25.053224,臺北市,南港區,
00552219,九暉工程行,臺北市中正區忠孝西路1段27號4樓,1140421.0,121.518853,25.04605,臺北市,中正區,
00552225,元記餐飲,臺北市大安區仁愛路4段48巷5號,1140421.0,121.547138,25.037329,臺北市,大安區,
00552230,菜根香自助坊,臺北市信義區信義路4段405號1樓,1140421.0,121.558884,25.033256,臺北市,信義區,
00552246,熙穎利企業社,臺北市信義區基隆路1段143號11樓之4,1140421.0,121.565797,25.042902,臺北市,信義區,
00552251,意魷未盡企業社,臺北市萬華區成都路61之1號1樓,1140421.0,121.505799,25.042888,臺北市,萬華區,
00552267,品味早餐店,臺北市北投區中和街485號1樓,1140421.0,121.495293,25.145088,臺北市,北投區,
00552273,日夕髮廊,臺北市大安區忠孝東路4段181巷40弄4號1樓,1140421.0,121.55054,25.043885,臺北市,大安區,
00530530,柒柒食堂,臺北市南港區研究院路2段21號1樓,1140422.0,121.615354,25.046378,臺北市,南港區,
00552288,山丘商號,臺北市松山區基隆路1段8號13樓,1140422.0,121.569933,25.050764,臺北市,松山區,
00552294,天地菈菈工作室,臺北市信義區光復南路415巷99號,1140422.0,121.558817,25.037229,臺北市,信義區,
00552301,新勝泰工坊,臺北市士林區文林路484號2樓,1140422.0,121.524404,25.096209,臺北市,士林區,
00552317,豬大郎豬血糕,臺北市中山區大直街7號1樓,1140422.0,121.54673,25.080518,臺北市,中山區,
00552323,你說漢堡,臺北市信義區基隆路1段147巷5弄44號1樓,1140422.0,121.566391,25.042843,臺北市,信義區,
00552338,澄榮商行,臺北市中山區南京東路2段6號1樓,1140422.0,121.528378,25.051881,臺北市,中山區,
00552359,安家會館,臺北市大安區辛亥路3段157巷24弄22號1樓,1140422.0,121.550219,25.017406,臺北市,大安區,
00552365,夾客樂企業社,臺北市中山區長春路209號,1140422.0,121.538399,25.054824,臺北市,中山區,
00552371,欽雲智能工作室,臺北市信義區信義路4段415號3樓之1,1140422.0,121.559235,25.033304,臺北市,信義區,
00552386,吉吉家企業社,臺北市中山區民生東路1段29號2樓之5,1140422.0,121.525124,25.058197,臺北市,中山區,
00552392,三德工程行,臺北市信義區信義路5段150巷445弄18號3樓,1140422.0,121.571824,25.022787,臺北市,信義區,
00552409,薇諾詩美容工作室,臺北市士林區延平北路五段244巷3號2樓,1140422.0,121.510164,25.084626,臺北市,士林區,
00552415,派派電子商務,臺北市大安區和平東路1段6號11樓,1140422.0,121.523047,25.026847,臺北市,大安區,
00552421,海海創意生活工作室,臺北市中正區永功里汀州路1段292號4樓,1140423.0,121.511516,25.02674,臺北市,中正區,
00552436,第二外語設計工作室,臺北市內湖區民權東路6段146號6樓之10,1140423.0,121.589517,25.068816,臺北市,內湖區,
00552442,豐沐商行,臺北市內湖區瑞光路76巷69號,1140423.0,121.579981,25.069942,臺北市,內湖區,
00552457,核心基地企業社,臺北市士林區中正路212巷1弄1號,1140423.0,121.526113,25.095822,臺北市,士林區,
00552463,子晞小吃店,臺北市中山區錦州街423之1號1樓,1140423.0,121.542277,25.060276,臺北市,中山區,
00552479,隅隱工作室,臺北市內湖區康樂街186巷45號地下,1140423.0,121.620484,25.076899,臺北市,內湖區,
00552484,陳記小吃店,臺北市南港區昆陽街142巷2號1樓,1140423.0,121.594233,25.049572,臺北市,南港區,
00552490,泓發休閒企業社,臺北市士林區文林路64號2樓,1140423.0,121.525747,25.08685,臺北市,士林區,
00552506,沁夢明心商行,臺北市內湖區民權東路6段180巷6號6樓之4,1140423.0,121.592648,25.068196,臺北市,內湖區,
00552512,純淨身心靈工作室,臺北市內湖區石潭路27號8樓之2,1140423.0,121.586063,25.06285,臺北市,內湖區,
00552528,蛇叔烘豆工作室,臺北市大安區和平東路2段118巷52弄16號,1140423.0,121.542212,25.022306,臺北市,大安區,
00552533,匹胖鐵板燒商行,臺北市松山區南京東路5段250巷18弄8號1樓,1140423.0,121.566542,25.0501,臺北市,松山區,
00552549,沐渼沙龍,臺北市松山區南京東路3段303巷14弄6之1號,1140423.0,121.547374,25.05327,臺北市,松山區,
00552554,雯湘未來商行,臺北市南港區中坡北路40巷2號1樓,1140423.0,121.580888,25.046052,臺北市,南港區,
00552576,變色龍理髮廳工作室,臺北市中正區金門街1之5號1樓,1140423.0,121.524744,25.023029,臺北市,中正區,
00552597,炸彈鈔人食堂,臺北市文山區木柵路1段200號1樓,1140423.0,121.552954,24.987812,臺北市,文山區,
00552604,成本小吃店,臺北市北投區東華街2段192號1樓,1140423.0,121.510492,25.120346,臺北市,北投區,
00552610,貓喜商行,臺北市大安區光復南路676巷18號1樓,1140423.0,121.556287,25.03069,臺北市,大安區,
00552631,聖金貴金屬商行,臺北市士林區德行東路268號1樓,1140423.0,121.535196,25.109831,臺北市,士林區,
00552908,慕璇手作工作室,臺北市士林區中正路215號2樓,1140423.0,121.526498,25.095293,臺北市,士林區,
00552581,美傑寶鑽企業社,臺北市中山區五常街53巷5號1樓,1140424.0,121.539698,25.064594,臺北市,中山區,
00552626,美傑寶企業社,臺北市信義區虎林街55巷3號1樓,1140424.0,121.577158,25.047267,臺北市,信義區,
00552647,雲南擺夷小吃店,臺北市士林區福華路164巷3號,1140424.0,121.522719,25.104358,臺北市,士林區,
00552652,喵團錦簇貓舍,臺北市松山區八德路4段604之1號1樓,1140424.0,121.572753,25.04981,臺北市,松山區,
00552668,雪波髮藝造型美髮店,臺北市大安區光復南路180巷56號,1140424.0,121.555135,25.04246,臺北市,大安區,
00552674,森的鴨肉羮,臺北市內湖區文德路22巷29弄1號,1140424.0,121.580173,25.076416,臺北市,內湖區,
00552689,快來吃可麗餅坊,臺北市松山區民權東路3段103巷35號1樓,1140424.0,121.54508,25.063953,臺北市,松山區,
00552695,物必達企業社,臺北市北投區榮華三路47號2樓,1140424.0,121.520368,25.114056,臺北市,北投區,
00552702,庠易子愷企業社,臺北市士林區社子街58號,1140424.0,121.507029,25.087371,臺北市,士林區,
00552718,如貞如願生活舖,臺北市松山區八德路2段410巷5弄1號2樓,1140424.0,121.54704,25.047238,臺北市,松山區,
00552724,玖妮商行,臺北市中正區仁愛路2段25號5樓,1140425.0,121.527305,25.038461,臺北市,中正區,
00552739,白胖胖商行,臺北市中山區中山北路2段137巷15號1樓,1140425.0,121.524066,25.061757,臺北市,中山區,
00552745,小龍湯包,臺北市文山區木柵路1段225號1樓,1140425.0,121.551998,24.987879,臺北市,文山區,
00552750,悠米畫畫生活工作室,臺北市信義區忠孝東路5段177號4樓,1140425.0,121.56901,25.041194,臺北市,信義區,
00552766,興傢園傢俱行,臺北市中山區松江路420號1樓,1140425.0,121.532784,25.064571,臺北市,中山區,
00552772,聯業企業社,臺北市中山區中山北路1段83巷5號5樓之12,1140425.0,121.522823,25.050467,臺北市,中山區,
00552787,魔指仙境美容坊,臺北市中山區長春路408號1樓及2樓,1140425.0,121.543657,25.054476,臺北市,中山區,
00552793,夢想開花所,臺北市中山區建國北路3段113巷5號1樓,1140425.0,121.536063,25.066693,臺北市,中山區,
00552800,炙嶼食堂,臺北市中山區遼寧街114之1號,1140425.0,121.542006,25.052693,臺北市,中山區,
00552816,松優里庭商行,臺北市大安區忠孝東路4段300號5樓,1140425.0,121.55628,25.041155,臺北市,大安區,
00552822,千萬雞餐坊,臺北市文山區景文街27號1樓,1140425.0,121.541439,24.992459,臺北市,文山區,
00552837,昶壹企業社,臺北市內湖區新明路182號1樓,1140425.0,121.585331,25.057395,臺北市,內湖區,
00552843,順神板模工程行,臺北市南港區福德街331號1樓,1140425.0,121.58831,25.039394,臺北市,南港區,
00552858,參緣紀商行,臺北市信義區永吉路278巷28弄3號1樓,1140425.0,121.573892,25.04455,臺北市,信義區,
00552864,嘉林水電行,臺北市士林區格致路40號1樓,1140425.0,121.546547,25.137298,臺北市,士林區,
00552870,絹然商行,臺北市大安區忠孝東路4段270號2樓之１,1140425.0,121.554847,25.041186,臺北市,大安區,
00552885,鉅金冰品,臺北市信義區松山路574號,1140425.0,121.578237,25.037082,臺北市,信義區,
00552891,滋全飲料舖,臺北市中山區合江街2號,1140425.0,121.539013,25.054841,臺北市,中山區,
00552920,大興水電行,臺北市大安區安居街12號1樓,1140428.0,121.554934,25.021121,臺北市,大安區,
00552935,絨毅水果行,臺北市萬華區峨眉街51號1樓,1140428.0,121.506666,25.04365,臺北市,萬華區,
00552941,絨琴蜜意商行,臺北市萬華區中華路1段114巷1號1樓,1140428.0,121.508263,25.043858,臺北市,萬華區,
00552956,時尚國際汽車美容,臺北市松山區塔悠路195號1樓,1140428.0,121.569603,25.057379,臺北市,松山區,
00552962,京展環境清潔企業社,臺北市北投區大業路280巷11號1樓,1140428.0,121.498879,25.12749,臺北市,北投區,
00552978,奇君安辰坊,臺北市中山區民權東路1段19號3樓之1,1140428.0,121.523816,25.063226,臺北市,中山區,
00552983,美粒企業社,臺北市大同區延平北路3段132號4樓,1140428.0,121.510822,25.0678,臺北市,大同區,
00552999,林溱快樂屋,臺北市文山區興隆路3段150號,1140428.0,121.558199,24.998595,臺北市,文山區,
00553006,福氣養生餐點早午餐,臺北市中山區民權東路2段92巷2弄1號,1140428.0,121.531668,25.061702,臺北市,中山區,
00553012,義起楓收商行,臺北市中山區北安路458巷41弄28號1樓,1140428.0,121.545815,25.078519,臺北市,中山區,
00553028,梅仙自助餐,臺北市中正區中華路2段393號,1140428.0,121.507921,25.026199,臺北市,中正區,
00553033,咔恰娜食品工作室,臺北市中山區雙城街32巷2之1號,1140428.0,121.524199,25.066157,臺北市,中山區,
00553049,辰億商號,臺北市松山區八德路4段697號2樓之1,1140428.0,121.576578,25.050204,臺北市,松山區,
00553054,嘉常菜餐館,臺北市松山區民權東路3段103巷5弄1號1樓,1140428.0,121.545103,25.062898,臺北市,松山區,
00553060,城市喚醒社,臺北市中山區中山北路1段33巷40號2樓,1140428.0,121.523483,25.048355,臺北市,中山區,
00553076,集客選物商行,臺北市中正區開封街1段62號,1140428.0,121.511697,25.045915,臺北市,中正區,
00553081,芯雲企業社,臺北市大同區寧夏路23之1號2樓,1140428.0,121.515134,25.055166,臺北市,大同區,
00553097,森果水果行,臺北市中山區松江路101號1樓,1140428.0,121.533223,25.051155,臺北市,中山區,
00553104,君泰百貨網購商行,臺北市萬華區華中里武成街34號1樓,1140428.0,121.495186,25.018698,臺北市,萬華區,
00553110,屏東地誌社,臺北市內湖區康樂街129之6號6樓,1140428.0,121.619977,25.073741,臺北市,內湖區,
93167460,妍莉餐點店,臺北市北投區石牌路2段333號,1140428.0,121.524233,25.122551,臺北市,北投區,
00553126,心健美企業社,臺北市中山區敬業一路128巷28號9樓,1140429.0,121.553259,25.083262,臺北市,中山區,
00553131,楊美學坊,臺北市大安區延吉街153之9號2樓,1140429.0,121.554948,25.040044,臺北市,大安區,
00553147,張秋蓮商行,臺北市南港區八德路四段794號1樓,1140429.0,121.580854,25.050684,臺北市,南港區,
00553152,淳青影像工作室,臺北市松山區復興北路191號13樓,1140429.0,121.54433,25.05524,臺北市,松山區,
00553168,猿富商行,臺北市北投區天母西路130巷5號,1140429.0,121.522262,25.118611,臺北市,北投區,
00553174,狗管家寵物美容工作室,臺北市信義區永吉路178號,1140429.0,121.571448,25.045456,臺北市,信義區,
00553189,鴻鑫工程行,臺北市士林區社中街426巷18號1樓,1140429.0,121.502375,25.09233,臺北市,士林區,
00553195,嶽一企業社,臺北市內湖區民權東路6段109號5樓,1140429.0,121.591589,25.069148,臺北市,內湖區,
00553202,遇見貓商行,臺北市松山區南京東路3段256巷47號,1140429.0,121.544602,25.04959,臺北市,松山區,
00553218,里花甜點工作室,臺北市中山區南京東路1段34號7樓,1140429.0,121.523843,25.051985,臺北市,中山區,
00553224,用心跑運動行銷工作室,臺北市松山區基隆路1段8號13樓,1140429.0,121.569933,25.050764,臺北市,松山區,
00553239,橙心工作室,臺北市大安區復興南路二段191之1號,1140429.0,121.543674,25.026589,臺北市,大安區,
00553245,速達工程行,臺北市士林區中正路646號1樓,1140429.0,121.507932,25.086607,臺北市,士林區,
00583640,炎焱焱雞蛋糕,臺北市內湖區內湖路1段591巷12號1樓,1140429.0,121.573297,25.08154,臺北市,內湖區,
00585555,酉味商行,臺北市南港區同德路34號,1140429.0,121.584399,25.045213,臺北市,南港區,
00553250,速可工作室,臺北市中山區松江路297巷12號,1140430.0,121.534343,25.061029,臺北市,中山區,
00553266,自由夜娛樂企業社,臺北市中山區民生東路1段39、41號地下,1140430.0,121.525902,25.058191,臺北市,中山區,
00553272,大豐商行,臺北市萬華區三水街62號1樓,1140430.0,121.50237,25.036,臺北市,萬華區,
00553287,雨日製作工作室,臺北市大同區西寧北路87號之1一樓,1140430.0,121.509095,25.056418,臺北市,大同區,
00553293,日光晴森咖啡館,臺北市大同區長安西路78巷1弄8號,1140430.0,121.51942,25.049965,臺北市,大同區,
00553300,丸星網路工作室,臺北市中山區新生北路2段62巷38之3號3樓之3,1140430.0,121.52589,25.056152,臺北市,中山區,
00553316,奕民雙星物業行,臺北市大安區復興南路2段291號10樓之1,1140430.0,121.543666,25.025036,臺北市,大安區,
00553322,永齊雙星物業行,臺北市大安區復興南路2段291號10樓,1140430.0,121.543666,25.025036,臺北市,大安區,
00553337,樺韋商行,臺北市信義區林口街2號1樓,1140430.0,121.579262,25.03649,臺北市,信義區,
00553358,圓木設計工作室,臺北市文山區辛亥路5段56號1樓,1140430.0,121.553779,24.999583,臺北市,文山區,
00553364,湘園牛肉麵,臺北市中山區合江街102巷2號,1140430.0,121.53913,25.0587,臺北市,中山區,
00553370,小高商行,臺北市文山區景華街5號,1140430.0,121.541692,24.995048,臺北市,文山區,
00553385,岢岢渝心企業社,臺北市中山區撫順街25號11樓,1140430.0,121.520318,25.063604,臺北市,中山區,
00553391,愛我精品服飾店,臺北市大安區大安路1段51巷24號,1140430.0,121.547124,25.043018,臺北市,大安區,
00578816,揪萊樂商行,臺北市萬華區萬大路276號1樓,1140430.0,121.500304,25.025625,臺北市,萬華區,
00544226,星大師商行,臺北市中正區館前路2號12樓,,121.514883,25.046368,臺北市,中正區,1140401.0
01658643,曾記曾添丁自營計程車行,臺北市內湖區民權東路1520巷25弄15號︹之2︺,,121.546869,25.059691,臺北市,內湖區,1140401.0
11386902,金泰銀樓,臺北市中山區北安路552之1號1樓,,121.548177,25.080331,臺北市,中山區,1140401.0
11387509,金峰銀樓,臺北市中山區林森北路103號1樓,,121.524981,25.050182,臺北市,中山區,1140401.0
14328364,第一劇場魚丸店,臺北市松山區八德路4段96號1樓,,121.56066,25.048359,臺北市,松山區,1140401.0
15421401,新愛興理髮廳,臺北市萬華區萬大路71巷24號1樓,,121.501375,25.030629,臺北市,萬華區,1140401.0
31844379,金苑服飾店,臺北市大安區敦化南路1段161巷26號1樓,,121.550392,25.043423,臺北市,大安區,1140401.0
76358909,樂春日式餐飲店,臺北市松山區長春路490號,,121.547019,25.054383,臺北市,松山區,1140401.0
88151066,道水順德餐飲商行,臺北市士林區至誠路2段129號1樓,,121.526882,25.10093,臺北市,士林區,1140401.0
88290378,富園食品行,臺北市信義區忠孝東路4段553巷6弄11號1樓,,121.56334,25.042307,臺北市,信義區,1140401.0
88306126,大本事商行,臺北市信義區忠孝東路4段553巷18號,,121.562888,25.04294,臺北市,信義區,1140401.0
93142659,睦月小吃部,臺北市大安區忠孝東路4段216巷33弄6號1樓,,121.553325,25.039321,臺北市,大安區,1140401.0
93145446,米藝企業社,臺北市中山區錦州街46號9樓之3,,121.525783,25.060174,臺北市,中山區,1140401.0
93196325,鼎騏商行,臺北市中正區南昌路1段31巷18號,,121.517752,25.032292,臺北市,中正區,1140401.0
00543423,好旺來美食館,臺北市大同區南京西路18巷6弄3之2號1樓,,121.519797,25.05205,臺北市,大同區,1140402.0
14719186,百年便利商店,臺北市萬華區環河南路2段250巷25弄2號1樓,,121.489984,25.033842,臺北市,萬華區,1140402.0
18976018,義倉米行,臺北市萬華區萬大路187巷66號1樓,,121.502005,25.028182,臺北市,萬華區,1140402.0
25554013,任意門養身飲品館,臺北市大安區和平東路3段70之2號1樓,,121.550506,25.024324,臺北市,大安區,1140402.0
25657881,春漾咖啡館,臺北市中山區中山北路2段50巷7號1樓,,121.522104,25.056279,臺北市,中山區,1140402.0
38459792,八八八彩券行,臺北市中山區民生東路1段25之10號,,121.524731,25.058197,臺北市,中山區,1140402.0
72915221,星辰商行,臺北市萬華區萬大路380號1樓,,121.499035,25.022485,臺北市,萬華區,1140402.0
76485742,幸福熱氣球坊,臺北市大安區潮州街162號2樓,,121.529352,25.028337,臺北市,大安區,1140402.0
88278249,春滿早點豆漿店,臺北市中山區錦州街261號1樓,,121.534715,25.060389,臺北市,中山區,1140402.0
88368305,立健美中西藥局,臺北市松山區民權東路3段106巷1號1樓,,121.544985,25.061767,臺北市,松山區,1140402.0
93114366,怪獸工作室,臺北市中山區錦州街159號2樓之5,,121.529867,25.06044,臺北市,中山區,1140402.0
93196465,轉轉義大利麵,臺北市中正區汀州路3段140號1樓,,121.533923,25.013798,臺北市,中正區,1140402.0
94919708,庶磊汽車商行,臺北市信義區忠孝東路5段185號1樓,,121.569219,25.04119,臺北市,信義區,1140402.0
00542199,昶盈館,臺北市萬華區康定路142號1樓,,121.50188,25.039944,臺北市,萬華區,1140407.0
10381561,于牟春香商行,臺北市萬華區內江街9號公有西門市場55號攤位,,121.506684,25.041594,臺北市,萬華區,1140407.0
25521935,簡單生活單車坊,臺北市北投區懷德街75巷2號,,121.51954,25.113662,臺北市,北投區,1140407.0
26253444,天母清潔服務社,臺北市士林區中山北路6段405巷54號1樓,,121.526925,25.115368,臺北市,士林區,1140407.0
26375164,夢想藝術沙龍,臺北市中山區南京西路23巷5之1號,,121.520668,25.053484,臺北市,中山區,1140407.0
38462038,錢來來彩券投注站,臺北市萬華區廣州街171號,,121.501168,25.036708,臺北市,萬華區,1140407.0
38571818,芙芙法式烘焙工作室,臺北市內湖區內湖路1段388號2樓之2,,121.572451,25.080801,臺北市,內湖區,1140407.0
42345809,朵朵行,臺北市萬華區中華路1段114巷13號,,121.507981,25.043924,臺北市,萬華區,1140407.0
76384049,俱樂咖啡商行,臺北市北投區中和街28號13樓之8,,121.502985,25.137951,臺北市,北投區,1140407.0
88159068,盛裕小吃店,臺北市中山區錦州街399號,,121.54149,25.060289,臺北市,中山區,1140407.0
88216650,景智茶莊,臺北市大安區和平東路2段311巷20號1樓,,121.545051,25.025237,臺北市,大安區,1140407.0
93143329,森品商行,臺北市中山區民權東路3段69號1樓,,121.543454,25.062539,臺北市,中山區,1140407.0
93180034,邱媽事業商行,臺北市萬華區昆明街184號,,121.504493,25.041698,臺北市,萬華區,1140407.0
93188423,御工良履工作室,臺北市信義區忠孝東路5段1之5號1樓,,121.564936,25.041533,臺北市,信義區,1140407.0
94903023,寧波芋圓店,臺北市中正區寧波西街76號,,121.516666,25.030118,臺北市,中正區,1140407.0
99626738,金格企業社,臺北市松山區南京東路4段152號4樓,,121.556067,25.051385,臺北市,松山區,1140407.0
00538982,正宗雲泰料理餐廳,臺北市中山區四平街99號1樓,,121.535452,25.053688,臺北市,中山區,1140408.0
00548172,圓樂小吃店,臺北市士林區文昌路16號1樓,,121.521804,25.094995,臺北市,士林區,1140408.0
01636022,詹瑞東自營計程車,臺北市內湖區內湖路3段329巷4弄14號2樓,,121.585725,25.088327,臺北市,內湖區,1140408.0
05703326,鍾儒智自營計程車行,臺北市中正區臨沂街3巷21號2樓,,121.531831,25.043299,臺北市,中正區,1140408.0
10340204,橙子設計工作室,臺北市松山區南京東路3段346之8號10樓1015室,,121.548078,25.051561,臺北市,松山區,1140408.0
10344692,超美髮型設計屋,臺北市信義區信義路5段150巷401弄21號,,121.570545,25.024348,臺北市,信義區,1140408.0
17286612,利高百貨行,臺北市萬華區廣州街223巷7號1樓,,121.498966,25.037013,臺北市,萬華區,1140408.0
17619816,優點子資訊企業社,臺北市大同區延平北路4段179巷22號1樓,,121.51215,25.073549,臺北市,大同區,1140408.0
73163705,許順順企業號,臺北市文山區興隆路3段36巷17弄11號,,121.555428,24.999473,臺北市,文山區,1140408.0
76430661,好耶食品行,臺北市中正區汀州路2段331號,,121.525167,25.021359,臺北市,中正區,1140408.0
79815367,五餅二魚恩典實業社,臺北市信義區中坡南路144號右側,,121.584576,25.040181,臺北市,信義區,1140408.0
79854564,登來富商行,臺北市中山區四平街21號1樓,,121.531138,25.053726,臺北市,中山區,1140408.0
88146563,菲騰美食坊,臺北市北投區崇仁路1段54號1樓,,121.50132,25.12694,臺北市,北投區,1140408.0
88149597,御盛食品工作室,臺北市松山區南京東路5段250巷18弄8號1樓,,121.566542,25.0501,臺北市,松山區,1140408.0
88356096,旭吉商行,臺北市內湖區港墘路127巷7號,,121.576423,25.07784,臺北市,內湖區,1140408.0
93128571,轉角餐飲企業社,臺北市南港區南港路1段216號3樓,,121.610553,25.055132,臺北市,南港區,1140408.0
93143469,眾樂商行,臺北市大安區延吉街131巷33號1樓,,121.555509,25.042916,臺北市,大安區,1140408.0
93143475,宙希工作坊,臺北市大同區民權西路104號4樓,,121.51752,25.062705,臺北市,大同區,1140408.0
01709306,世季機車行,臺北市文山區木柵路1段249號,,121.55276,24.988007,臺北市,文山區,1140409.0
25553730,千微餐飲店,臺北市南港區興中路58號,,121.606937,25.056584,臺北市,南港區,1140409.0
27161859,忠泰洗衣店,臺北市信義區忠孝東路4段553巷22弄55號1樓,,121.56355,25.043322,臺北市,信義區,1140409.0
31882252,蕓林工作室,臺北市內湖區金湖路352之1號,,121.603827,25.073646,臺北市,內湖區,1140409.0
42293886,羽澤行,臺北市北投區裕民三路3號1樓,,121.516216,25.116164,臺北市,北投區,1140409.0
42430684,汎福盒子工作室,臺北市北投區尊賢街245巷35號4樓,,121.505539,25.116783,臺北市,北投區,1140409.0
73409709,精英企業社,臺北市中山區農安街271巷5號4樓,,121.536016,25.064969,臺北市,中山區,1140409.0
75105651,巧宴商行,臺北市萬華區東園街28巷40號,,121.494969,25.026651,臺北市,萬華區,1140409.0
75918405,坤林商行,臺北市中正區汀州路三段185號,,121.532856,25.014755,臺北市,中正區,1140409.0
85434463,長季開發平台工作室,臺北市中山區中山北路2段59巷21號4樓之7,,121.52394,25.055917,臺北市,中山區,1140409.0
88282996,斯鉑思精品服飾,臺北市大安區敦化南路1段161巷22號,,121.550229,25.043424,臺北市,大安區,1140409.0
88356309,雙囍創意無限工作室,臺北市大安區忠孝東路4段162號12樓之2,,121.550289,25.041284,臺北市,大安區,1140409.0
88372906,小太陽童裝百貨店,臺北市士林區大北路39號1樓,,121.525962,25.089846,臺北市,士林區,1140409.0
93116786,梵赫美學館,臺北市中正區忠孝西路1段41號8樓之14,,121.518384,25.046171,臺北市,中正區,1140409.0
93122648,沐樂美學概念館,臺北市中山區松江路100巷1號2樓,,121.532217,25.051096,臺北市,中山區,1140409.0
00548102,禧年館,臺北市萬華區長沙街2段128號2樓,,121.503541,25.040337,臺北市,萬華區,1140410.0
18102036,活力實業社,臺北市大安區和平東路2段96巷10弄4之1號,,121.54071,25.023454,臺北市,大安區,1140410.0
25576749,黑吧煎焙咖啡專賣店,臺北市信義區忠孝東路5段396號地下,,121.57462,25.040731,臺北市,信義區,1140410.0
30435158,上嘉水電建材行,臺北市大安區瑞安街208巷70弄1號,,121.540342,25.030439,臺北市,大安區,1140410.0
38564751,翌豪企業社,臺北市文山區辛亥路4段77巷92弄5號7樓之1,,121.560663,25.008921,臺北市,文山區,1140410.0
38580909,喜樂屋企業社,臺北市中山區吉林路433巷32號,,121.532433,25.066867,臺北市,中山區,1140410.0
42278610,陳晏汝行,臺北市中山區撫順街9號,,121.521421,25.063787,臺北市,中山區,1140410.0
72986013,小李豬血糕,臺北市中正區羅斯福路4段136巷1之3號,,121.535644,25.012823,臺北市,中正區,1140410.0
75936038,遠景資訊社,臺北市中山區松江路64巷9號1樓,,121.532152,25.049056,臺北市,中山區,1140410.0
81601448,龍城食品行,臺北市大安區永康街35號1樓,,121.529573,25.030871,臺北市,大安區,1140410.0
88387154,信義欣辰藥局,臺北市大安區敦煌里信義路4段265巷15號,,121.554486,25.034082,臺北市,大安區,1140410.0
93133336,睿智精品服飾店,臺北市中山區南京東路2段115巷26號1樓,,121.533547,25.05347,臺北市,中山區,1140410.0
93191124,和興桌遊社,臺北市中山區雙城街21之2號地下,,121.524362,25.065701,臺北市,中山區,1140410.0
93199316,恆毅商號,臺北市大安區師大路49巷6號,,121.528938,25.02421,臺北市,大安區,1140410.0
05199070,晶玉行,臺北市中正區南昌街1段31巷18號1樓,,121.517752,25.032292,臺北市,中正區,1140411.0
42419040,采金彩券行,臺北市士林區大北路79號,,121.524857,25.090171,臺北市,士林區,1140411.0
75941779,岳城企業社,臺北市中山區吉林路351號,,121.530475,25.06471,臺北市,中山區,1140411.0
88137403,永樂未央腳底按摩,臺北市中山區林森北路260號3之2樓,,121.525328,25.054576,臺北市,中山區,1140411.0
88164631,濛田號,臺北市大安區忠孝東路4段155號12樓之7,,121.550038,25.041709,臺北市,大安區,1140411.0
88229228,威士髮廊,臺北市士林區中山北路5段505巷24號,,121.527052,25.093116,臺北市,士林區,1140411.0
88278108,本田雞肉商行,臺北市大安區大安路1段42號,,121.546128,25.043537,臺北市,大安區,1140411.0
88295710,宮本雞肉商行,臺北市中山區雙城街12之3號,,121.524216,25.064648,臺北市,中山區,1140411.0
88305013,松田雞肉商行,臺北市中山區錦州街261號1樓,,121.534715,25.060389,臺北市,中山區,1140411.0
88369000,赤田雞肉商行,臺北市大安區安居街7號1樓,,121.555244,25.021158,臺北市,大安區,1140411.0
88369043,羽田雞肉商行,臺北市文山區興隆路3段57號,,121.556076,25.000306,臺北市,文山區,1140411.0
88378818,八田雞肉商行,臺北市中山區錦州街386號1樓,,121.541078,25.060127,臺北市,中山區,1140411.0
93193811,品悅表演企業社,臺北市大安區光復南路72巷73號2樓,,121.555158,25.04437,臺北市,大安區,1140411.0
01582047,李記李茂雄自營計程車行,臺北市松山區光復北路120巷6號,,121.557381,25.050889,臺北市,松山區,1140414.0
01596008,優品家具行,臺北市松山區八德路4段189號1樓,,121.563489,25.048881,臺北市,松山區,1140414.0
01647457,新彰企業行,臺北市內湖區環山路2段53巷6弄13號6樓之1,,121.574001,25.084329,臺北市,內湖區,1140414.0
26215673,沙瑪髮藝造型店,臺北市中正區南昌路1段123號2樓,,121.518324,25.029879,臺北市,中正區,1140414.0
27160731,經理牛肉麵店,臺北市松山區延壽街80之1號1樓,,121.564933,25.056895,臺北市,松山區,1140414.0
31161634,欣裕商行,臺北市北投區裕民六路114巷36弄1號1樓,,121.518764,25.114266,臺北市,北投區,1140414.0
42489642,淯新企業社,臺北市大安區忠孝東路3段211號5樓,,121.539486,25.041864,臺北市,大安區,1140414.0
48790685,招財進寶投注站,臺北市萬華區東園街213號1樓,,121.498422,25.021917,臺北市,萬華區,1140414.0
72989932,霍格華茲工作室,臺北市中山區松江路54號11樓,,121.532752,25.04868,臺北市,中山區,1140414.0
75211610,四麵八餃麵食館,臺北市文山區忠順街2段38號,,121.563985,24.984794,臺北市,文山區,1140414.0
76364043,潔西美妍館,臺北市士林區士東路13號1樓,,121.526771,25.111913,臺北市,士林區,1140414.0
76410237,吳陳小吃店,臺北市大安區和平東路2段118巷2之2號,,121.542784,25.024256,臺北市,大安區,1140414.0
79801737,陽光清潔行,臺北市文山區木柵路2段109巷25弄11號1樓,,121.562646,24.990096,臺北市,文山區,1140414.0
88294509,恩沐車體美容工坊,臺北市北投區中庸里中和街269號,,121.500547,25.1401,臺北市,北投區,1140414.0
88353387,拾元入魂娃娃屋,臺北市松山區八德路4段196號1樓,,121.563866,25.048686,臺北市,松山區,1140414.0
88363081,莎鯊雅拍貼相館,臺北市中正區汀州路3段207號,,121.533497,25.014312,臺北市,中正區,1140414.0
93144517,伊田雞肉商行,臺北市松山區新東街23號,,121.56585,25.058762,臺北市,松山區,1140414.0
93185538,有田雞肉商行,臺北市中正區博愛路134號1樓,,121.511413,25.04294,臺北市,中正區,1140414.0
93190899,豐田雞肉商行,臺北市松山區民生東路5段122號1樓,,121.561111,25.058575,臺北市,松山區,1140414.0
93195986,靜岡雞肉商行,臺北市士林區延平北路6段17號,,121.509063,25.086974,臺北市,士林區,1140414.0
93196161,珂萊兒藝術手作坊,臺北市中山區林森北路259巷9號5樓之12,,121.526061,25.054383,臺北市,中山區,1140414.0
93199879,小林雞肉商行,臺北市大安區信義路4段60之32號1樓,,121.545852,25.03313,臺北市,大安區,1140414.0
93199884,奈良雞肉商行,臺北市萬華區東園街198號1樓,,121.498379,25.021636,臺北市,萬華區,1140414.0
93200616,三井商行,臺北市中正區漢口街1段64號,,121.512711,25.045096,臺北市,中正區,1140414.0
93202558,桑田商行,臺北市松山區南京東路4段133巷6弄1號1樓,,121.555007,25.052596,臺北市,松山區,1140414.0
93203347,藏田商行,臺北市信義區忠孝東路4段559巷14號,,121.563705,25.042155,臺北市,信義區,1140414.0
93203536,讚岐商行,臺北市士林區中正路312號1樓,,121.522898,25.094797,臺北市,士林區,1140414.0
17078142,新利行,臺北市萬華區西寧南路70號4樓之9,,121.506047,25.043486,臺北市,萬華區,1140415.0
20761718,西村文具行,臺北市大安區忠孝東路4段97號地下之23,,121.547955,25.041754,臺北市,大安區,1140415.0
42337499,創新商行,臺北市大安區安和路2段52號,,121.552207,25.031047,臺北市,大安區,1140415.0
75587215,一日一商行,臺北市大同區迪化街1段14巷38號,,121.509281,25.054099,臺北市,大同區,1140415.0
75906800,恩寶商行,臺北市士林區中山北路7段36之1號1樓,,121.531281,25.12009,臺北市,士林區,1140415.0
75925428,鵲兒囍婚禮顧問工作室,臺北市中山區松江路65號6樓,,121.533182,25.049084,臺北市,中山區,1140415.0
76465247,調色盤晨食坊,臺北市松山區八德路2段366巷23號1樓,,121.546041,25.046966,臺北市,松山區,1140415.0
78065350,億泰車料行,臺北市信義區吳興街284巷7號1樓,,121.56389,25.025233,臺北市,信義區,1140415.0
79814304,綺薇髮藝,臺北市大安區敦化南路1段187巷75之1號,,121.552615,25.042624,臺北市,大安區,1140415.0
87486629,百為企業社,臺北市大同區西寧北路78之18號,,121.508688,25.05443,臺北市,大同區,1140415.0
88147182,巧之屋小吃店,臺北市松山區延壽街60號,,121.565844,25.056943,臺北市,松山區,1140415.0
88205675,陳皮記商行,臺北市士林區延平北路5段136巷27弄37號1樓,,121.511107,25.082993,臺北市,士林區,1140415.0
88212090,一品香蔥抓餅,臺北市大安區信義路4段60-62號1樓,,121.545503,25.033062,臺北市,大安區,1140415.0
88283783,享響超媒事業社,臺北市大安區信義路4段1號2樓,,121.543915,25.033566,臺北市,大安區,1140415.0
88299878,享喝飲料店,臺北市文山區木新路3段33號,,121.564546,24.982475,臺北市,文山區,1140415.0
93181414,勝鑫商行,臺北市北投區裕民六路120號4樓,,121.517636,25.11456,臺北市,北投區,1140415.0
00549475,夜太美餐酒館,臺北市大安區光復南路308巷49號1樓,,121.555645,25.038851,臺北市,大安區,1140416.0
00549524,磅茶商行,臺北市松山區民族東路634號1樓,,121.545277,25.065622,臺北市,松山區,1140416.0
04327871,伊寧理髮廳,臺北市大同區伊寧街77號1樓,,121.510291,25.064679,臺北市,大同區,1140416.0
25665714,彩椒廚房,臺北市大安區溫州街74巷5弄1號,,121.531944,25.019587,臺北市,大安區,1140416.0
38495729,亞宸足體養生館,臺北市中正區中華路2段313巷13號,,121.506252,25.028385,臺北市,中正區,1140416.0
75903769,昊記食堂,臺北市北投區振華街36號1樓,,121.518501,25.11586,臺北市,北投區,1140416.0
75928190,柏格歐克拉克早餐店,臺北市士林區中山北路7段36號1樓,,121.531245,25.120103,臺北市,士林區,1140416.0
79826929,三方整合行銷工作室,臺北市信義區基隆路2段23號7樓之6,,121.559,25.031759,臺北市,信義區,1140416.0
88149294,咪努美髮沙龍,臺北市北投區東華街1段420號,,121.518212,25.11128,臺北市,北投區,1140416.0
88310493,東之香商行,臺北市信義區松山路315之1號1樓,,121.577985,25.04238,臺北市,信義區,1140416.0
88368092,風藝術療癒工作室,臺北市萬華區中華路一段216號2樓之1,,121.506299,25.037336,臺北市,萬華區,1140416.0
88377753,西施特胖子小吃店,臺北市松山區民權東路3段103巷5弄1號1樓,,121.545103,25.062898,臺北市,松山區,1140416.0
93143974,粥記廣東粥,臺北市中山區合江街142號1樓,,121.539148,25.05979,臺北市,中山區,1140416.0
93168117,哈諾商行,臺北市大同區承德路3段158之1號,,121.518148,25.068287,臺北市,大同區,1140416.0
93180668,嚮樂號,臺北市內湖區康寧路3段174號1樓,,121.611898,25.069188,臺北市,內湖區,1140416.0
93199723,郁皇美髮沙龍,臺北市萬華區和平西路3段54之1號,,121.503426,25.034817,臺北市,萬華區,1140416.0
21756397,郁婷越式小館,臺北市中正區中華路2段393號1樓,,121.507921,25.026199,臺北市,中正區,1140417.0
75902902,何佳興設計工作室,臺北市中山區南京東路2段20號9樓之1,,121.528645,25.051887,臺北市,中山區,1140417.0
79192474,馬克雲端工作室,臺北市內湖區舊宗路1段46號3樓之4,,121.580357,25.058401,臺北市,內湖區,1140417.0
88161986,煜品牌公關事業社,臺北市大安區忠孝東路4段311號6樓之1,,121.555802,25.041594,臺北市,大安區,1140417.0
88228972,鑫易商行,臺北市大安區復興南路2段288號,,121.543237,25.024049,臺北市,大安區,1140417.0
88368993,翔駿企業社,臺北市中正區重慶南路1段43號11樓之8,,121.513349,25.044958,臺北市,中正區,1140417.0
93192382,宇宙光企業社,臺北市北投區溫泉路139號7樓之22,,121.512418,25.140222,臺北市,北投區,1140417.0
93193185,賜貝秀企業社,臺北市北投區溫泉路139號7樓之22,,121.512418,25.140222,臺北市,北投區,1140417.0
93204140,金力百元小吃店,臺北市大安區泰順街60巷29號1樓,,121.529345,25.022573,臺北市,大安區,1140417.0
98881387,晶彩洗衣店,臺北市內湖區東湖路119巷50弄1號1樓,,121.61723,25.069676,臺北市,內湖區,1140417.0
00549828,滼潔生技企業社,臺北市信義區中坡北路15巷6號2樓,,121.580584,25.044844,臺北市,信義區,1140418.0
00549897,勝和百貨商行,臺北市信義區忠孝東路五段1之2號5樓,,121.564964,25.041298,臺北市,信義區,1140418.0
04642821,木棉花冰果室,臺北市中正區羅斯福路3段314號2樓,,121.532679,25.016048,臺北市,中正區,1140418.0
10304994,群生國際商行,臺北市文山區辛亥路4段101巷85之3號,,121.559306,25.006592,臺北市,文山區,1140418.0
26301712,善泉花坊,臺北市北投區西安街1段275號1樓,,121.516921,25.111754,臺北市,北投區,1140418.0
31889327,艾爾資訊社,臺北市大安區忠孝東路3段217巷5弄2號1樓,,121.539592,25.043413,臺北市,大安區,1140418.0
38459456,鑫大發彩券行,臺北市北投區中和街244號1樓,,121.501333,25.139548,臺北市,北投區,1140418.0
48695015,裴僑餐廳,臺北市信義區基隆路1段147巷19號1樓,,121.56659,25.042449,臺北市,信義區,1140418.0
73910907,長鑫水電行,臺北市信義區吳興街284巷17之6號1樓,,121.563614,25.024028,臺北市,信義區,1140418.0
88160712,粉美好國際實業商行,臺北市萬華區中華路2段504巷3號8樓,,121.507773,25.025652,臺北市,萬華區,1140418.0
88221794,镹花園藝造景設計工作室,臺北市信義區富陽街7號1樓,,121.556333,25.023481,臺北市,信義區,1140418.0
93126692,艾可以工作室,臺北市大同區承德路3段165之1號8樓,,121.518615,25.068266,臺北市,大同區,1140418.0
93200094,不晚企業社,臺北市大安區忠孝東路4段169號12樓之1,,121.550421,25.041705,臺北市,大安區,1140418.0
00537793,光兆京商行,臺北市中山區遼寧街13號1樓,,121.542214,25.047626,臺北市,中山區,1140421.0
00540679,樂其中商行,臺北市萬華區西園路1段72巷24號1樓,,121.498891,25.039452,臺北市,萬華區,1140421.0
14730274,棻蘭廚房,臺北市松山區八德路3段12巷70弄14號,,121.550096,25.045385,臺北市,松山區,1140421.0
27156574,躍昇眼鏡行,臺北市文山區景後街160號1樓,,121.54228,24.990928,臺北市,文山區,1140421.0
29241886,志和企業商行,臺北市中山區市民大道3段39號2樓,,121.534589,25.045231,臺北市,中山區,1140421.0
38564675,喵吧主題咖啡廳,臺北市松山區南京東路5段123巷1弄11號(1樓),,121.559955,25.052184,臺北市,松山區,1140421.0
42428929,薰香屋商行,臺北市大安區信義路4段43號1樓,,121.544796,25.033546,臺北市,大安區,1140421.0
73128237,乳果冷飲店,臺北市北投區裕民一路43號,,121.517774,25.116599,臺北市,北投區,1140421.0
75443800,吃好吃滿吃貨企業社,臺北市松山區南京東路3段275號6樓,,121.545638,25.052012,臺北市,松山區,1140421.0
76445904,梅代商行,臺北市大同區承德路3段334號1樓,,121.519869,25.075099,臺北市,大同區,1140421.0
79813902,浩翰茗品企業社,臺北市信義區松山路520號,,121.578039,25.037984,臺北市,信義區,1140421.0
88304210,好拾工作室,臺北市內湖區行善路385號11樓之7,,121.585603,25.063912,臺北市,內湖區,1140421.0
88377584,阿里巴七工作室,臺北市文山區羅斯福路6段276巷8號2樓,,121.538974,24.99171,臺北市,文山區,1140421.0
93149055,卡度三館美髮沙龍店,臺北市中山區松江路297巷12號,,121.534343,25.061029,臺北市,中山區,1140421.0
93187959,合欣藥局,臺北市文山區辛亥路4段234號1樓,,121.555077,25.001878,臺北市,文山區,1140421.0
00543958,織郁之庭工作室,臺北市萬華區開封街2段66之2號2樓,,121.506164,25.046619,臺北市,萬華區,1140422.0
04526029,興吉服裝社,臺北市萬華區雙園街122巷15號1樓,,121.492205,25.030857,臺北市,萬華區,1140422.0
04728539,祥鈺商行,臺北市中山區一江街36號1樓,,121.531428,25.053761,臺北市,中山區,1140422.0
15666783,泰好汽車商行,臺北市士林區承德路4段338號338之1號、340號1樓,,121.517529,25.089998,臺北市,士林區,1140422.0
25578795,烘焙媽媽手工烘焙屋,臺北市北投區新興路8號,,121.489405,25.141185,臺北市,北投區,1140422.0
25638040,幼葒小吃店,臺北市萬華區武昌街2段85之1號,,121.504827,25.045276,臺北市,萬華區,1140422.0
26259931,麥喬登企業社,臺北市士林區承德路4段2巷1號2樓,,121.521047,25.078921,臺北市,士林區,1140422.0
38496678,金婆雲泰小吃店,臺北市士林區福華路164巷3號1樓,,121.522719,25.104358,臺北市,士林區,1140422.0
72984583,山林皮業工作室,臺北市士林區重慶北路4段274號3樓,,121.511677,25.087354,臺北市,士林區,1140422.0
75492674,泰德莉娜商行,臺北市中山區雙城街43巷33號1樓,,121.525422,25.067554,臺北市,中山區,1140422.0
76423958,建佳企業社,臺北市大同區西寧北路78之18號9樓,,121.508688,25.05443,臺北市,大同區,1140422.0
88208928,名都生活會館,臺北市中山區林森北路85巷56號1樓,,121.526895,25.049233,臺北市,中山區,1140422.0
88283572,浪尖鮨味水產商行,臺北市中山區新生北路2段58巷3號1樓,,121.527143,25.055394,臺北市,中山區,1140422.0
25540757,悅文出版社,臺北市內湖區內湖路1段91巷35弄46號4樓,,121.561215,25.087102,臺北市,內湖區,1140423.0
38579895,野原葵小吃店,臺北市北投區天母西路130巷5號,,121.522262,25.118611,臺北市,北投區,1140423.0
42502173,采唐造型企業社,臺北市大同區天水路46號2樓,,121.512546,25.05241,臺北市,大同區,1140423.0
72657589,劉孟籬工作室,臺北市大安區忠孝東路3段136號11樓,,121.537792,25.041502,臺北市,大安區,1140423.0
75761109,難找私宅手作甜點,臺北市大安區和平東路3段308巷54號4樓,,121.554984,25.019282,臺北市,大安區,1140423.0
79877721,福伈企業社,臺北市中正區羅斯福路3段238號2樓,,121.529846,25.019424,臺北市,中正區,1140423.0
93184427,立丞裝潢工程行,臺北市大安區忠孝東路4段2號5樓之1,,121.543981,25.041307,臺北市,大安區,1140423.0
93197416,樸蔬願餐館,臺北市大同區民樂街101號1樓,,121.51069,25.057147,臺北市,大同區,1140423.0
93198479,微醺楓味食堂,臺北市文山區木柵路1段200號1樓,,121.552954,24.987812,臺北市,文山區,1140423.0
93204057,豐昇傳統整復推拿,臺北市中山區中山北路2段59巷9號2樓,,121.523621,25.055907,臺北市,中山區,1140423.0
00541277,澧喬羽商行,臺北市北投區新興路158巷6號1樓,,121.486712,25.139123,臺北市,北投區,1140424.0
01428729,聯昌服裝行,臺北市萬華區大理街60號1樓,,121.500198,25.034609,臺北市,萬華區,1140424.0
25543781,黑貓小吃店,臺北市南港區忠孝東路6段323號,,121.592208,25.05047,臺北市,南港區,1140424.0
38508597,泰綻健康生活館,臺北市士林區士東路260號1樓,,121.536283,25.11306,臺北市,士林區,1140424.0
42362692,瑩瑩洗衣店,臺北市中正區汀州路1段94號1樓,,121.507422,25.030259,臺北市,中正區,1140424.0
42387602,港元燒臘店,臺北市大安區延吉街70巷2弄1號,,121.55376,25.042615,臺北市,大安區,1140424.0
42556487,崧皓食品商行,臺北市松山區饒河街222號,,121.577454,25.050808,臺北市,松山區,1140424.0
72920097,佰盈汽車商行,臺北市松山區撫遠街255巷26號,,121.568245,25.061401,臺北市,松山區,1140424.0
80995330,愛海心靈書房,臺北市大安區復興南路2段78巷30弄5號地下樓,,121.542475,25.030515,臺北市,大安區,1140424.0
88224595,多泉餐飲店,臺北市信義區莊敬路405號1樓,,121.56607,25.027463,臺北市,信義區,1140424.0
88226398,立成美容企業社,臺北市中山區四平街56號3樓,,121.53345,25.05357,臺北市,中山區,1140424.0
88236918,晴美術手作空間工作室,臺北市中正區詔安街220巷4號3樓,,121.509146,25.026274,臺北市,中正區,1140424.0
88304719,宜豔商行,臺北市大同區延平北路1段22號11樓之5,,121.511888,25.050533,臺北市,大同區,1140424.0
93135593,野田雞肉商行,臺北市內湖區東湖路24號1樓,,121.612836,25.068704,臺北市,內湖區,1140424.0
00508360,逸明企業社,臺北市中山區民生東路2段41號2樓,,121.529149,25.05814,臺北市,中山區,1140425.0
14347067,帝寶禮儀社,臺北市中山區民權東路2段135巷30弄5號1樓,,121.534771,25.064306,臺北市,中山區,1140425.0
26234284,賴氏水車工程行,臺北市北投區石牌路1段17號,,121.50978,25.112879,臺北市,北投區,1140425.0
36549191,三榮電機行,臺北市中正區環河南路1段98號1樓,,121.504673,25.047547,臺北市,中正區,1140425.0
42285909,進成水車行,臺北市北投區清江路25巷5號2樓之1,,121.502189,25.131577,臺北市,北投區,1140425.0
42487861,德布德芃髮型工作室,臺北市大安區忠孝東路4段49巷4弄4號,,121.545389,25.042245,臺北市,大安區,1140425.0
48784213,老麥麵店,臺北市北投區中央北路3段40巷4號,,121.485589,25.138484,臺北市,北投區,1140425.0
72928350,群毅企業社,臺北市信義區永吉路191號2樓,,121.573179,25.045746,臺北市,信義區,1140425.0
76428638,焢閣食堂,臺北市內湖區內湖路1段285巷65弄9號1樓,,121.567431,25.084441,臺北市,內湖區,1140425.0
88230463,敬悅商行,臺北市大安區忠孝東路4段311號6樓之1,,121.555802,25.041594,臺北市,大安區,1140425.0
93132625,昕元企業社,臺北市信義區基隆路1段159號17樓,,121.565183,25.04196,臺北市,信義區,1140425.0
93179156,鳥居町小吃店,臺北市中山區北安路621巷12號1樓,,121.548193,25.082894,臺北市,中山區,1140425.0
93185880,幻質感髮型沙龍,臺北市大同區赤峯街44巷15號1樓,,121.519367,25.057089,臺北市,大同區,1140425.0
93187331,英旻服飾店,臺北市大安區信義路4段65號,,121.545483,25.033534,臺北市,大安區,1140425.0
93187923,御嘉興業商行,臺北市中山區民生東路1段29號6樓之4,,121.525124,25.058197,臺北市,中山區,1140425.0
93190151,禎華商行,臺北市中山區民生東路1段29號6樓之4,,121.525124,25.058197,臺北市,中山區,1140425.0
93197577,無與倫比企業社,臺北市大同區重慶北路2段197號11樓之1,,121.513709,25.060452,臺北市,大同區,1140425.0
99358424,平山家日本料理店,臺北市大安區新生南路3段106號3樓之1,,121.532833,25.016786,臺北市,大安區,1140425.0
01714770,金文利銀樓,臺北市文山區景美街9號之1、1樓,,121.541781,24.99249,臺北市,文山區,1140428.0
04317873,建成五金行,臺北市大同區承德路2段136號1樓,,121.517999,25.059346,臺北市,大同區,1140428.0
21755670,八斗子小吃店,臺北市內湖區環山路1段96號,,121.567809,25.086514,臺北市,內湖區,1140428.0
25547597,協瑩企業行,臺北市萬華區和平西路3段320號,,121.492645,25.035302,臺北市,萬華區,1140428.0
42342541,萬國食品行,臺北市萬華區環河南路3段101號11樓之1,,121.490714,25.025027,臺北市,萬華區,1140428.0
42421572,一加一五金行,臺北市北投區中央南路1段154號1樓,,121.500924,25.129605,臺北市,北投區,1140428.0
72992036,三合商行,臺北市松山區南京東路5段163之8號,,121.562757,25.051651,臺北市,松山區,1140428.0
88202810,山索羅顧問企業社,臺北市中山區南京西路1之1號10樓,,121.521814,25.052534,臺北市,中山區,1140428.0
88356645,申旺商行,臺北市內湖區安泰街114巷21號7樓,,121.616558,25.077587,臺北市,內湖區,1140428.0
88382279,中研食品企業社,臺北市信義區基隆路1段186號11樓之8,,121.564787,25.042092,臺北市,信義區,1140428.0
93191573,均鮮餐飲,臺北市內湖區康寧路3段189巷21弄11號1樓,,121.612561,25.070851,臺北市,內湖區,1140428.0
93195212,慕牧工作室,臺北市大安區敦化南路1段161巷45之1號,,121.551349,25.043604,臺北市,大安區,1140428.0
94919778,凡雄眼鏡行,臺北市大安區復興南路2段401號,,121.54357,25.021647,臺北市,大安區,1140428.0
99985776,印象十九小吃店,臺北市信義區崇德街28號,,121.553636,25.024256,臺北市,信義區,1140428.0
00546287,雷醺諾商行,臺北市松山區南京東路四段52巷8之1號,,121.553492,25.050747,臺北市,松山區,1140429.0
26340721,良金企業社,臺北市中正區汀州路1段100號,,121.507521,25.030145,臺北市,中正區,1140429.0
42521782,劉進財店,臺北市信義區福德街232巷3號1樓,,121.584605,25.038665,臺北市,信義區,1140429.0
72977823,億禾商行,臺北市中山區南京東路2段163號,,121.535878,25.05223,臺北市,中山區,1140429.0
72991732,文華四品工作室,臺北市中山區錦州街159號3樓之2,,121.529867,25.06044,臺北市,中山區,1140429.0
75085310,關於咖啡,臺北市松山區民生東路4段97巷1弄21號,,121.551474,25.058315,臺北市,松山區,1140429.0
75904789,德旺商行,臺北市內湖區文德路22巷61號2樓,,121.580573,25.075247,臺北市,內湖區,1140429.0
75934593,伊鍋一精緻小火鍋,臺北市北投區中央南路1段147號1樓,,121.501152,25.129726,臺北市,北投區,1140429.0
76378320,簡碳工作室,臺北市士林區承德路4段179巷7號地下樓,,121.523315,25.087895,臺北市,士林區,1140429.0
77406730,雅琦行,臺北市士林區大東路16之13號1樓,,121.525257,25.087858,臺北市,士林區,1140429.0
79816470,鹹酥杰食堂,臺北市士林區克強路10巷19弄3號4樓,,121.523695,25.109691,臺北市,士林區,1140429.0
83906375,三川夾子園,臺北市萬華區西寧南路70號2樓之10,,121.506047,25.043486,臺北市,萬華區,1140429.0
88294331,極惡移動洗車行,臺北市中山區林森北路399巷15號1樓,,121.526026,25.059474,臺北市,中山區,1140429.0
88367848,口可商行,臺北市萬華區環河南路1段181號11樓之2,,121.498811,25.040669,臺北市,萬華區,1140429.0
93128299,盈順早午餐,臺北市信義區莊敬路325巷44號,,121.564459,25.028634,臺北市,信義區,1140429.0
12371168,長通工商企業社,臺北市中山區南京東路3段219號9樓,,121.543104,25.052067,臺北市,中山區,1140430.0
17772276,佑祥服裝行,臺北市萬華區艋舺大道86巷16號,,121.503071,25.032935,臺北市,萬華區,1140430.0
25562082,昂姿髮藝名店,臺北市大安區師大路60號2樓,,121.52822,25.024546,臺北市,大安區,1140430.0
38461713,杰樺企業社,臺北市北投區中央南路2段63號,,121.500224,25.123006,臺北市,北投區,1140430.0
38462972,東峯商行,臺北市萬華區中華路2段336號3樓之6,,121.504363,25.029508,臺北市,萬華區,1140430.0
42293112,秀玲時尚花坊,臺北市大同區酒泉街176號1樓,,121.511435,25.07202,臺北市,大同區,1140430.0
42297692,彼微髮藝坊,臺北市南港區中坡南路19號,,121.583033,25.0434,臺北市,南港區,1140430.0
42517149,安立早餐店,臺北市大安區瑞安街286號,,121.538974,25.025912,臺北市,大安區,1140430.0
72674052,台成工程行,臺北市大安區忠孝東路4段162號9樓之1,,121.550289,25.041284,臺北市,大安區,1140430.0
72911490,嬉花工作室,臺北市內湖區瑞光路235巷21號7樓,,121.578742,25.074977,臺北市,內湖區,1140430.0
72921286,鼎裕餐飲,臺北市大同區錦西街89號,,121.515068,25.059692,臺北市,大同區,1140430.0
72922519,胡饕米粉湯,臺北市信義區永吉路30巷158弄3號1樓,,121.568563,25.042424,臺北市,信義區,1140430.0
72932143,美樂餐廳,臺北市中山區林森北路133巷35號1樓,,121.526476,25.050854,臺北市,中山區,1140430.0
75930175,旺饕餐飲商行,臺北市中正區羅斯福路3段284巷8號1樓,,121.531837,25.016038,臺北市,中正區,1140430.0
88087092,秀皇音樂餐廳,臺北市中山區南京東路1段132巷28之3號地下二層,,121.526712,25.050198,臺北市,中山區,1140430.0
88203389,千捷娛樂企業社,臺北市文山區興隆路4段163之2號,,121.561964,24.984152,臺北市,文山區,1140430.0
88358165,興饕餐飲商行,臺北市中山區興安街78之12號1樓,,121.541315,25.056,臺北市,中山區,1140430.0
88362421,鑫盈商行,臺北市萬華區武昌街2段50巷17號,,121.506953,25.04426,臺北市,萬華區,1140430.0
88371667,六味津商行,臺北市士林區德行東路109巷111號1樓,,121.528692,25.111378,臺北市,士林區,1140430.0
88377141,捷適能運動工作室,臺北市內湖區康樂街136巷3弄18號地下1層之1,,121.618927,25.072489,臺北市,內湖區,1140430.0
88394182,喜品企業社,臺北市大安區大安路1段65號4樓之3,,121.546277,25.042535,臺北市,大安區,1140430.0
91698603,德沐整合行銷,臺北市大安區大安路2段17號,,121.546097,25.032302,臺北市,大安區,1140430.0
93142356,荃熊食品社,臺北市內湖區康寧路3段12之2號1樓,,121.606596,25.072557,臺北市,內湖區,1140430.0
93204036,時刻地窟企業社,臺北市北投區溫泉路68之3號1樓,,121.504748,25.135034,臺北市,北投區,1140430.0
